[
  {
    "id": 823443,
    "date": "2026-07-15T00:00:00Z",
    "sportId": 1,
    "league": "MLB",
    "home": "National League All-Stars",
    "away": "American League All-Stars",
    "homeId": 160,
    "awayId": 159,
    "venue": "Citizens Bank Park",
    "city": "Philadelphia",
    "state": "Pennsylvania",
    "lat": 39.90539086,
    "lon": -75.16716957,
    "status": "Scheduled",
    "timeTBD": false,
    "ticketUrl": "https://www.mlb.com/all-star/tickets"
  },
  {
    "id": 823440,
    "date": "2026-07-16T23:10:00Z",
    "sportId": 1,
    "league": "MLB",
    "home": "Philadelphia Phillies",
    "away": "New York Mets",
    "homeId": 143,
    "awayId": 121,
    "venue": "Citizens Bank Park",
    "city": "Philadelphia",
    "state": "Pennsylvania",
    "lat": 39.90539086,
    "lon": -75.16716957,
    "status": "Scheduled",
    "timeTBD": false,
    "ticketUrl": "http://mlb.tickets.com/?agency=MLB_MPV&orgid=21&pid=9643093"
  },
  {
    "id": 824766,
    "date": "2026-07-17T17:35:00Z",
    "sportId": 1,
    "league": "MLB",
    "home": "Boston Red Sox",
    "away": "Tampa Bay Rays",
    "homeId": 111,
    "awayId": 139,
    "venue": "Fenway Park",
    "city": "Boston",
    "state": "Massachusetts",
    "lat": 42.346456,
    "lon": -71.097441,
    "status": "Scheduled",
    "timeTBD": false,
    "ticketUrl": "https://mlb.tickets.com/?agency=MLB_MPV&orgid=23&pid=9681660"
  },
  {
    "id": 818454,
    "date": "2026-07-17T22:20:00Z",
    "sportId": 12,
    "league": "Double-A",
    "home": "Portland Sea Dogs",
    "away": "Somerset Patriots",
    "homeId": 546,
    "awayId": 1956,
    "venue": "Delta Dental Park",
    "city": "Portland",
    "state": "Maine",
    "lat": 43.6562399,
    "lon": -70.27873,
    "status": "Scheduled",
    "timeTBD": false,
    "ticketUrl": "https://mlb.tickets.com/?agency=MILB_MPV&orgId=56873&eventId=14661"
  },
  {
    "id": 820397,
    "date": "2026-07-17T22:30:00Z",
    "sportId": 14,
    "league": "Single-A",
    "home": "Palm Beach Cardinals",
    "away": "St. Lucie Mets",
    "homeId": 279,
    "awayId": 507,
    "venue": "Roger Dean Chevrolet Stadium",
    "city": "Jupiter",
    "state": "Florida",
    "lat": 26.890957,
    "lon": -80.116365,
    "status": "Scheduled",
    "timeTBD": false,
    "ticketUrl": "https://mlb.tickets.com/?agency=JUPV_PL_MPV&orgid=57091&pid=9680158"
  },
  {
    "id": 820650,
    "date": "2026-07-17T22:30:00Z",
    "sportId": 14,
    "league": "Single-A",
    "home": "Dunedin Blue Jays",
    "away": "Clearwater Threshers",
    "homeId": 424,
    "awayId": 566,
    "venue": "TD Ballpark",
    "city": "Dunedin",
    "state": "Florida",
    "lat": 27.9745812,
    "lon": -82.7913301,
    "status": "Scheduled",
    "timeTBD": false,
    "ticketUrl": "https://am.ticketmaster.com/tbjrcminorleague/buy/ism/U0QwNzE3MjY="
  },
  {
    "id": 820250,
    "date": "2026-07-17T22:30:00Z",
    "sportId": 14,
    "league": "Single-A",
    "home": "Tampa Tarpons",
    "away": "Bradenton Marauders",
    "homeId": 587,
    "awayId": 3390,
    "venue": "George M. Steinbrenner Field",
    "city": "Tampa",
    "state": "Florida",
    "lat": 27.97997,
    "lon": -82.50702,
    "status": "Scheduled",
    "timeTBD": false,
    "ticketUrl": "https://www.ticketmaster.com/event/0D00647524FEADE6"
  },
  {
    "id": 815656,
    "date": "2026-07-17T22:35:00Z",
    "sportId": 11,
    "league": "Triple-A",
    "home": "Syracuse Mets",
    "away": "Buffalo Bisons",
    "homeId": 552,
    "awayId": 422,
    "venue": "NBT Bank Stadium",
    "city": "Syracuse",
    "state": "New York",
    "lat": 43.079531,
    "lon": -76.165419,
    "status": "Scheduled",
    "timeTBD": false,
    "ticketUrl": "https://mlb.tickets.com/?orgId=57969&agency=MILB_MPV&eventId=3204"
  },
  {
    "id": 821819,
    "date": "2026-07-17T22:35:00Z",
    "sportId": 13,
    "league": "High-A",
    "home": "Wilmington Blue Rocks",
    "away": "Jersey Shore BlueClaws",
    "homeId": 426,
    "awayId": 427,
    "venue": "Frawley Stadium",
    "city": "Wilmington",
    "state": "Delaware",
    "lat": 39.731809,
    "lon": -75.564174,
    "status": "Scheduled",
    "timeTBD": false,
    "ticketUrl": "https://lf1.glitnirticketing.com/lfticket/web/stadiumg.php?status_id=2&event_id=246"
  },
  {
    "id": 820717,
    "date": "2026-07-17T22:35:00Z",
    "sportId": 14,
    "league": "Single-A",
    "home": "Daytona Tortugas",
    "away": "Jupiter Hammerheads",
    "homeId": 450,
    "awayId": 479,
    "venue": "Jackie Robinson Ballpark",
    "city": "Daytona Beach",
    "state": "Florida",
    "lat": 29.20922,
    "lon": -81.01596,
    "status": "Scheduled",
    "timeTBD": false,
    "ticketUrl": "https://mlb.tickets.com/?agency=MILB_MPV&orgid=57209&pid=9599080"
  },
  {
    "id": 827185,
    "date": "2026-07-17T22:35:00Z",
    "sportId": 14,
    "league": "Single-A",
    "home": "Fredericksburg Nationals",
    "away": "Hill City Howlers",
    "homeId": 436,
    "awayId": 481,
    "venue": "Virginia Credit Union Stadium",
    "city": "Fredericksburg",
    "state": "Virginia",
    "lat": 38.3181302,
    "lon": -77.5124029,
    "status": "Scheduled",
    "timeTBD": false,
    "ticketUrl": "https://mlb.tickets.com/?agency=MILB_MPV&orgid=58409&eventId=3811"
  },
  {
    "id": 826856,
    "date": "2026-07-17T22:35:00Z",
    "sportId": 14,
    "league": "Single-A",
    "home": "Salem RidgeYaks",
    "away": "Delmarva Shorebirds",
    "homeId": 414,
    "awayId": 548,
    "venue": "Carilion Clinic Field",
    "city": "Salem",
    "state": "Virginia",
    "lat": 37.2861162,
    "lon": -80.037161,
    "status": "Scheduled",
    "timeTBD": false,
    "ticketUrl": "https://mlb.tickets.com/?orgId=57031&agency=MILB_MPV&eventId=14738"
  },
  {
    "id": 822345,
    "date": "2026-07-17T22:40:00Z",
    "sportId": 13,
    "league": "High-A",
    "home": "Brooklyn Cyclones",
    "away": "Hudson Valley Renegades",
    "homeId": 453,
    "awayId": 537,
    "venue": "Maimonides Park",
    "city": "Brooklyn",
    "state": "New York",
    "lat": 40.57392,
    "lon": -73.98473,
    "status": "Scheduled",
    "timeTBD": false,
    "ticketUrl": "https://mlb.tickets.com/?orgid=58029&agency=MILB_MPV&eventId=4046"
  },
  {
    "id": 816701,
    "date": "2026-07-17T22:45:00Z",
    "sportId": 11,
    "league": "Triple-A",
    "home": "Durham Bulls",
    "away": "Charlotte Knights",
    "homeId": 234,
    "awayId": 494,
    "venue": "Durham Bulls Athletic Park",
    "city": "Durham",
    "state": "North Carolina",
    "lat": 35.99158,
    "lon": -78.90401,
    "status": "Scheduled",
    "timeTBD": false,
    "ticketUrl": "https://www.ticketmaster.com/event/2D006443AC94A0CC"
  },
  {
    "id": 815877,
    "date": "2026-07-17T22:45:00Z",
    "sportId": 11,
    "league": "Triple-A",
    "home": "Rochester Red Wings",
    "away": "Jacksonville Jumbo Shrimp",
    "homeId": 534,
    "awayId": 564,
    "venue": "ESL Ballpark",
    "city": "Rochester",
    "state": "New York",
    "lat": 43.158301,
    "lon": -77.619748,
    "status": "Scheduled",
    "timeTBD": false,
    "ticketUrl": "https://www.ticketreturn.com/prod2new/BuyNew.asp?EventID=354342"
  },
  {
    "id": 822151,
    "date": "2026-07-17T22:45:00Z",
    "sportId": 13,
    "league": "High-A",
    "home": "Greenville Drive",
    "away": "Frederick Keys",
    "homeId": 428,
    "awayId": 493,
    "venue": "Fluor Field at the West End",
    "city": "Greenville",
    "state": "South Carolina",
    "lat": 34.84297,
    "lon": -82.40893,
    "status": "Scheduled",
    "timeTBD": false,
    "ticketUrl": "https://gd1.glitnirticketing.com/gdticket/web/stadiumg.php?status_id=2&event_id=107"
  },
  {
    "id": 821885,
    "date": "2026-07-17T22:45:00Z",
    "sportId": 13,
    "league": "High-A",
    "home": "Rome Emperors",
    "away": "Asheville Tourists",
    "homeId": 432,
    "awayId": 573,
    "venue": "AdventHealth Stadium",
    "city": "Rome",
    "state": "Georgia",
    "lat": 34.285832,
    "lon": -85.167211,
    "status": "Scheduled",
    "timeTBD": false,
    "ticketUrl": "https://www.ticketmaster.com/event/0E0064549D1CA898"
  },
  {
    "id": 818866,
    "date": "2026-07-17T23:00:00Z",
    "sportId": 12,
    "league": "Double-A",
    "home": "Binghamton Rumble Ponies",
    "away": "Akron RubberDucks",
    "homeId": 505,
    "awayId": 402,
    "venue": "Mirabito Stadium",
    "city": "Binghamton",
    "state": "New York",
    "lat": 42.1031199,
    "lon": -75.90379,
    "status": "Scheduled",
    "timeTBD": false,
    "ticketUrl": "https://mlb.tickets.com/?orgId=57789&agency=MILB_MPV&eventId=3506"
  },
  {
    "id": 818383,
    "date": "2026-07-17T23:00:00Z",
    "sportId": 12,
    "league": "Double-A",
    "home": "Reading Fightin Phils",
    "away": "Altoona Curve",
    "homeId": 522,
    "awayId": 452,
    "venue": "FirstEnergy Stadium",
    "city": "Reading",
    "state": "Pennsylvania",
    "lat": 40.365558,
    "lon": -75.933816,
    "status": "Scheduled",
    "timeTBD": false,
    "ticketUrl": "https://www.ticketreturn.com/prod2/Buy.asp?EventID=356243"
  },
  {
    "id": 818657,
    "date": "2026-07-17T23:00:00Z",
    "sportId": 12,
    "league": "Double-A",
    "home": "Harrisburg Senators",
    "away": "New Hampshire Fisher Cats",
    "homeId": 547,
    "awayId": 463,
    "venue": "FNB Field",
    "city": "Harrisburg",
    "state": "Pennsylvania",
    "lat": 40.2568294,
    "lon": -76.8896522,
    "status": "Scheduled",
    "timeTBD": false,
    "ticketUrl": "https://mlb.tickets.com/?orgId=58589&agency=MILB_MPV&eventId=5368#"
  },
  {
    "id": 818049,
    "date": "2026-07-17T23:00:00Z",
    "sportId": 12,
    "league": "Double-A",
    "home": "Chattanooga Lookouts",
    "away": "Columbus Clingstones",
    "homeId": 498,
    "awayId": 6325,
    "venue": "Erlanger Park",
    "city": "Chattanooga",
    "state": "Tennessee",
    "lat": 35.02602956034051,
    "lon": -85.32085229852302,
    "status": "Scheduled",
    "timeTBD": false,
    "ticketUrl": "https://mlb.tickets.com/?orgId=57129&agency=MILB_MPV&eventId=61291"
  },
  {
    "id": 819861,
    "date": "2026-07-17T23:00:00Z",
    "sportId": 13,
    "league": "High-A",
    "home": "Lake County Captains",
    "away": "Dayton Dragons",
    "homeId": 437,
    "awayId": 459,
    "venue": "Classic Auto Group Park",
    "city": "Eastlake",
    "state": "Ohio",
    "lat": 41.6424351,
    "lon": -81.4367781,
    "status": "Scheduled",
    "timeTBD": false,
    "ticketUrl": "https://mlb.tickets.com/?orgId=57929&agency=MILB_MPV&eventId=2070"
  },
  {
    "id": 827119,
    "date": "2026-07-17T23:00:00Z",
    "sportId": 14,
    "league": "Single-A",
    "home": "Hickory Crawdads",
    "away": "Wilson Warbirds",
    "homeId": 448,
    "awayId": 249,
    "venue": "L.P. Frans Stadium",
    "city": "Hickory",
    "state": "North Carolina",
    "lat": 35.747289,
    "lon": -81.3778848,
    "status": "Scheduled",
    "timeTBD": false,
    "ticketUrl": "https://mlb.tickets.com/?agency=MILB_MPV&orgid=57071&eventid=15061"
  },
  {
    "id": 827047,
    "date": "2026-07-17T23:00:00Z",
    "sportId": 14,
    "league": "Single-A",
    "home": "Kannapolis Cannon Ballers",
    "away": "Myrtle Beach Pelicans",
    "homeId": 487,
    "awayId": 521,
    "venue": "Atrium Health Ballpark",
    "city": "Kannapolis",
    "state": "North Carolina",
    "lat": 35.4968555,
    "lon": -80.6282677,
    "status": "Scheduled",
    "timeTBD": false,
    "ticketUrl": "https://www.ticketreturn.com/prod2/Buy.asp?EventID=355603"
  },
  {
    "id": 823524,
    "date": "2026-07-17T23:05:00Z",
    "sportId": 1,
    "league": "MLB",
    "home": "New York Yankees",
    "away": "Los Angeles Dodgers",
    "homeId": 147,
    "awayId": 119,
    "venue": "Yankee Stadium",
    "city": "Bronx",
    "state": "New York",
    "lat": 40.82919482,
    "lon": -73.9264977,
    "status": "Scheduled",
    "timeTBD": false,
    "ticketUrl": "https://www.mlb.com/app/ballpark/yankees/tickets/single-game-tickets/2026/home-game-46"
  },
  {
    "id": 816784,
    "date": "2026-07-17T23:05:00Z",
    "sportId": 11,
    "league": "Triple-A",
    "home": "Columbus Clippers",
    "away": "Indianapolis Indians",
    "homeId": 445,
    "awayId": 484,
    "venue": "Huntington Park",
    "city": "Columbus",
    "state": "Ohio",
    "lat": 39.96868,
    "lon": -83.01102,
    "status": "Scheduled",
    "timeTBD": false,
    "ticketUrl": "https://www.ticketmaster.com/event/05006374AB79990A"
  },
  {
    "id": 815581,
    "date": "2026-07-17T23:05:00Z",
    "sportId": 11,
    "league": "Triple-A",
    "home": "Toledo Mud Hens",
    "away": "Gwinnett Stripers",
    "homeId": 512,
    "awayId": 431,
    "venue": "Fifth Third Field",
    "city": "Toledo",
    "state": "Ohio",
    "lat": 41.64767,
    "lon": -83.53838,
    "status": "Scheduled",
    "timeTBD": false,
    "ticketUrl": "https://mlb.tickets.com/?orgid=54891&agency=MILB_MPV&eventid=65179"
  },
  {
    "id": 815808,
    "date": "2026-07-17T23:05:00Z",
    "sportId": 11,
    "league": "Triple-A",
    "home": "Scranton/Wilkes-Barre RailRiders",
    "away": "Worcester Red Sox",
    "homeId": 531,
    "awayId": 533,
    "venue": "PNC Field",
    "city": "Moosic",
    "state": "Pennsylvania",
    "lat": 41.360672,
    "lon": -75.683676,
    "status": "Scheduled",
    "timeTBD": false,
    "ticketUrl": "https://www.ticketmaster.com/event/02006436E1AEDEE2"
  },
  {
    "id": 818798,
    "date": "2026-07-17T23:05:00Z",
    "sportId": 12,
    "league": "Double-A",
    "home": "Chesapeake Baysox",
    "away": "Hartford Yard Goats",
    "homeId": 418,
    "awayId": 538,
    "venue": "Prince George's Stadium",
    "city": "Bowie",
    "state": "Maryland",
    "lat": 38.946114,
    "lon": -76.709334,
    "status": "Scheduled",
    "timeTBD": false,
    "ticketUrl": "https://www.ticketreturn.com/prod2/Buy.asp?EventID=358271"
  },
  {
    "id": 818315,
    "date": "2026-07-17T23:05:00Z",
    "sportId": 12,
    "league": "Double-A",
    "home": "Richmond Flying Squirrels",
    "away": "Erie SeaWolves",
    "homeId": 3410,
    "awayId": 106,
    "venue": "CarMax Park",
    "city": "Richmond",
    "state": "Virginia",
    "lat": null,
    "lon": null,
    "status": "Scheduled",
    "timeTBD": false,
    "ticketUrl": "https://mlb.tickets.com/?agency=MILB_MPV&&orgid=53889&eventId=62248"
  },
  {
    "id": 819603,
    "date": "2026-07-17T23:05:00Z",
    "sportId": 13,
    "league": "High-A",
    "home": "South Bend Cubs",
    "away": "Peoria Chiefs",
    "homeId": 550,
    "awayId": 443,
    "venue": "Four Winds Field",
    "city": "South Bend",
    "state": "Indiana",
    "lat": 41.6704099,
    "lon": -86.25547,
    "status": "Scheduled",
    "timeTBD": false,
    "ticketUrl": "https://mlb.tickets.com/?agency=MILB_MPV&orgid=55571&pid=9586903"
  },
  {
    "id": 819921,
    "date": "2026-07-17T23:05:00Z",
    "sportId": 13,
    "league": "High-A",
    "home": "Great Lakes Loons",
    "away": "West Michigan Whitecaps",
    "homeId": 456,
    "awayId": 582,
    "venue": "Dow Diamond",
    "city": "Midland",
    "state": "Michigan",
    "lat": 43.6089355,
    "lon": -84.2397878,
    "status": "Scheduled",
    "timeTBD": false,
    "ticketUrl": "https://mlb.tickets.com/?agency=MILB_MPV&orgId=54391&eventId=60980"
  },
  {
    "id": 819805,
    "date": "2026-07-17T23:05:00Z",
    "sportId": 13,
    "league": "High-A",
    "home": "Lansing Lugnuts",
    "away": "Fort Wayne TinCaps",
    "homeId": 499,
    "awayId": 584,
    "venue": "Jackson Field",
    "city": "Lansing",
    "state": "Michigan",
    "lat": 42.73465,
    "lon": -84.5455999,
    "status": "Scheduled",
    "timeTBD": false,
    "ticketUrl": "https://mlb.tickets.com/?agency=MILB_MPV&orgid=57009&eventId=15247"
  },
  {
    "id": 822079,
    "date": "2026-07-17T23:05:00Z",
    "sportId": 13,
    "league": "High-A",
    "home": "Hub City Spartanburgers",
    "away": "Greensboro Grasshoppers",
    "homeId": 6324,
    "awayId": 477,
    "venue": "Fifth Third Park",
    "city": "Spartanburg",
    "state": "South Carolina",
    "lat": 34.9449402,
    "lon": -81.9359415,
    "status": "Scheduled",
    "timeTBD": false,
    "ticketUrl": "https://mlb.tickets.com/?orgid=57729&agency=MILB_MPV&eventId=14888"
  },
  {
    "id": 820582,
    "date": "2026-07-17T23:05:00Z",
    "sportId": 14,
    "league": "Single-A",
    "home": "Fort Myers Mighty Mussels",
    "away": "Lakeland Flying Tigers",
    "homeId": 509,
    "awayId": 570,
    "venue": "Lee Health Sports Complex",
    "city": "Fort Myers",
    "state": "Florida",
    "lat": 26.537803,
    "lon": -81.841973,
    "status": "Scheduled",
    "timeTBD": false,
    "ticketUrl": "https://mlb.tickets.com/?orgId=55029&agency=MILB_MPV&eventId=65064"
  },
  {
    "id": 827459,
    "date": "2026-07-17T23:05:00Z",
    "sportId": 14,
    "league": "Single-A",
    "home": "Charleston RiverDogs",
    "away": "Columbia Fireflies",
    "homeId": 233,
    "awayId": 3705,
    "venue": "Joseph P. Riley, Jr. Ballpark",
    "city": "Charleston",
    "state": "South Carolina",
    "lat": 32.790421,
    "lon": -79.961332,
    "status": "Scheduled",
    "timeTBD": false,
    "ticketUrl": "https://mlb.tickets.com/?orgId=55016&agency=MILB_MPV&eventId=61137"
  },
  {
    "id": 827245,
    "date": "2026-07-17T23:05:00Z",
    "sportId": 14,
    "league": "Single-A",
    "home": "Fayetteville Woodpeckers",
    "away": "Augusta GreenJackets",
    "homeId": 3712,
    "awayId": 478,
    "venue": "SEGRA Stadium",
    "city": "Fayetteville",
    "state": "North Carolina",
    "lat": 35.054357,
    "lon": -78.8851444,
    "status": "Scheduled",
    "timeTBD": false,
    "ticketUrl": "https://mlb.tickets.com/?orgId=58689&agency=MILB_MPV&eventId=7291"
  },
  {
    "id": 824737,
    "date": "2026-07-17T23:10:00Z",
    "sportId": 1,
    "league": "MLB",
    "home": "Boston Red Sox",
    "away": "Tampa Bay Rays",
    "homeId": 111,
    "awayId": 139,
    "venue": "Fenway Park",
    "city": "Boston",
    "state": "Massachusetts",
    "lat": 42.346456,
    "lon": -71.097441,
    "status": "Scheduled",
    "timeTBD": false,
    "ticketUrl": "https://mlb.tickets.com/?agency=MLB_MPV&orgid=23&pid=9681687"
  },
  {
    "id": 824414,
    "date": "2026-07-17T23:10:00Z",
    "sportId": 1,
    "league": "MLB",
    "home": "Cleveland Guardians",
    "away": "Pittsburgh Pirates",
    "homeId": 114,
    "awayId": 134,
    "venue": "Progressive Field",
    "city": "Cleveland",
    "state": "Ohio",
    "lat": 41.495861,
    "lon": -81.685255,
    "status": "Scheduled",
    "timeTBD": false,
    "ticketUrl": "https://mlb.tickets.com/?agency=MLB_MPV&orgid=27&pid=9658549"
  },
  {
    "id": 824901,
    "date": "2026-07-17T23:15:00Z",
    "sportId": 1,
    "league": "MLB",
    "home": "Atlanta Braves",
    "away": "Texas Rangers",
    "homeId": 144,
    "awayId": 140,
    "venue": "Truist Park",
    "city": "Atlanta",
    "state": "Georgia",
    "lat": 33.890672,
    "lon": -84.467641,
    "status": "Scheduled",
    "timeTBD": false,
    "ticketUrl": "https://www.ticketmaster.com/event/0E00634DCBBE6E83"
  },
  {
    "id": 822789,
    "date": "2026-07-17T23:15:00Z",
    "sportId": 1,
    "league": "MLB",
    "home": "Toronto Blue Jays",
    "away": "Chicago White Sox",
    "homeId": 141,
    "awayId": 145,
    "venue": "Rogers Centre",
    "city": "Toronto",
    "state": "Ontario",
    "lat": 43.64155,
    "lon": -79.38915,
    "status": "Scheduled",
    "timeTBD": false,
    "ticketUrl": "https://www.ticketmaster.ca/event/10006391860F3CD1?artistid=806032&brand=bluejays2&landing=n"
  },
  {
    "id": 816100,
    "date": "2026-07-17T23:35:00Z",
    "sportId": 11,
    "league": "Triple-A",
    "home": "Nashville Sounds",
    "away": "Norfolk Tides",
    "homeId": 556,
    "awayId": 568,
    "venue": "First Horizon Park",
    "city": "Nashville",
    "state": "Tennessee",
    "lat": 36.173218,
    "lon": -86.785171,
    "status": "Scheduled",
    "timeTBD": false,
    "ticketUrl": "https://www.ticketmaster.com/event/1B00642C79304D2B?utm_source=Sounds&utm_medium=TLINK&utm_campaign=Sounds-TLINK"
  },
  {
    "id": 817832,
    "date": "2026-07-17T23:35:00Z",
    "sportId": 12,
    "league": "Double-A",
    "home": "Montgomery Biscuits",
    "away": "Knoxville Smokies",
    "homeId": 421,
    "awayId": 553,
    "venue": "DABOS Park",
    "city": "Montgomery",
    "state": "Alabama",
    "lat": 32.382298,
    "lon": -86.310592,
    "status": "Scheduled",
    "timeTBD": false,
    "ticketUrl": "https://www.ticketreturn.com/prod2new/BuyNew.asp?EventID=356463"
  },
  {
    "id": 818170,
    "date": "2026-07-17T23:35:00Z",
    "sportId": 12,
    "league": "Double-A",
    "home": "Biloxi Shuckers",
    "away": "Pensacola Blue Wahoos",
    "homeId": 5015,
    "awayId": 4124,
    "venue": "Keesler Federal Park",
    "city": "Biloxi",
    "state": "Mississippi",
    "lat": 30.395421,
    "lon": -88.893217,
    "status": "Scheduled",
    "timeTBD": false,
    "ticketUrl": "https://www.ticketmaster.com/event/1B006429EC1EDE42"
  },
  {
    "id": 820121,
    "date": "2026-07-17T23:35:00Z",
    "sportId": 13,
    "league": "High-A",
    "home": "Cedar Rapids Kernels",
    "away": "Beloit Sky Carp",
    "homeId": 492,
    "awayId": 554,
    "venue": "Veterans Memorial Stadium",
    "city": "Cedar Rapids",
    "state": "Iowa",
    "lat": 41.96785,
    "lon": -91.68662,
    "status": "Scheduled",
    "timeTBD": false,
    "ticketUrl": "https://www.ticketreturn.com/prod2new/BuyNew.asp?EventID=358090#"
  },
  {
    "id": 822410,
    "date": "2026-07-17T23:35:00Z",
    "sportId": 13,
    "league": "High-A",
    "home": "Bowling Green Hot Rods",
    "away": "Winston-Salem Dash",
    "homeId": 2498,
    "awayId": 580,
    "venue": "Bowling Green Ballpark",
    "city": "Bowling Green",
    "state": "Kentucky",
    "lat": 36.9957207,
    "lon": -86.4411401,
    "status": "Scheduled",
    "timeTBD": false,
    "ticketUrl": "https://www.ticketreturn.com/prod2new//BuyClear.asp?EventID=354478&continue=buynew.asp"
  },
  {
    "id": 823766,
    "date": "2026-07-17T23:40:00Z",
    "sportId": 1,
    "league": "MLB",
    "home": "Milwaukee Brewers",
    "away": "Miami Marlins",
    "homeId": 158,
    "awayId": 146,
    "venue": "American Family Field",
    "city": "Milwaukee",
    "state": "Wisconsin",
    "lat": 43.02838,
    "lon": -87.97099,
    "status": "Scheduled",
    "timeTBD": false,
    "ticketUrl": "https://mlb.tickets.com/?agency=MLB_MPV&orgid=4&pid=9642505"
  },
  {
    "id": 819461,
    "date": "2026-07-17T23:40:00Z",
    "sportId": 13,
    "league": "High-A",
    "home": "Wisconsin Timber Rattlers",
    "away": "Quad Cities River Bandits",
    "homeId": 572,
    "awayId": 565,
    "venue": "Neuroscience Group Field",
    "city": "Appleton",
    "state": "Wisconsin",
    "lat": 44.282871,
    "lon": -88.469427,
    "status": "Scheduled",
    "timeTBD": false,
    "ticketUrl": "https://mlb.tickets.com/?agency=MILB_MPV&orgid=58269&mkt_code=WTRWEB&eventId=3123"
  },
  {
    "id": 818107,
    "date": "2026-07-18T00:00:00Z",
    "sportId": 12,
    "league": "Double-A",
    "home": "Birmingham Barons",
    "away": "Rocket City Trash Pandas",
    "homeId": 247,
    "awayId": 559,
    "venue": "Regions Field",
    "city": "Birmingham",
    "state": "Alabama",
    "lat": 33.5077928,
    "lon": -86.8120366,
    "status": "Scheduled",
    "timeTBD": false,
    "ticketUrl": "https://mlb.tickets.com/?agency=MILB_MPV&orgid=57391&eventId=14964"
  },
  {
    "id": 824655,
    "date": "2026-07-18T00:05:00Z",
    "sportId": 1,
    "league": "MLB",
    "home": "Chicago Cubs",
    "away": "Minnesota Twins",
    "homeId": 112,
    "awayId": 142,
    "venue": "Wrigley Field",
    "city": "Chicago",
    "state": "Illinois",
    "lat": 41.948171,
    "lon": -87.655503,
    "status": "Scheduled",
    "timeTBD": false,
    "ticketUrl": "https://mlb.tickets.com/?orgid=5&agency=MLB_MPV&pid=9642659"
  },
  {
    "id": 815055,
    "date": "2026-07-18T00:05:00Z",
    "sportId": 11,
    "league": "Triple-A",
    "home": "Round Rock Express",
    "away": "Las Vegas Aviators",
    "homeId": 102,
    "awayId": 400,
    "venue": "Dell Diamond",
    "city": "Round Rock",
    "state": "Texas",
    "lat": 30.527463,
    "lon": -97.630397,
    "status": "Scheduled",
    "timeTBD": false,
    "ticketUrl": "https://mlb.tickets.com/?orgId=58189&agency=MILB_MPV&eventId=27345"
  },
  {
    "id": 816185,
    "date": "2026-07-18T00:05:00Z",
    "sportId": 11,
    "league": "Triple-A",
    "home": "Memphis Redbirds",
    "away": "Iowa Cubs",
    "homeId": 235,
    "awayId": 451,
    "venue": "AutoZone Park",
    "city": "Memphis",
    "state": "Tennessee",
    "lat": 35.14297,
    "lon": -90.04924,
    "status": "Scheduled",
    "timeTBD": false,
    "ticketUrl": "https://mlb.tickets.com/?agency=MILB_MPV&orgId=56789&eventId=17631"
  },
  {
    "id": 815954,
    "date": "2026-07-18T00:05:00Z",
    "sportId": 11,
    "league": "Triple-A",
    "home": "Omaha Storm Chasers",
    "away": "Lehigh Valley IronPigs",
    "homeId": 541,
    "awayId": 1410,
    "venue": "Werner Park",
    "city": "Papillion",
    "state": "Nebraska",
    "lat": 41.1510945,
    "lon": -96.1057988,
    "status": "Scheduled",
    "timeTBD": false,
    "ticketUrl": "https://mlb.tickets.com/?agency=MILB_MPV&orgid=57870&pid=9592063"
  },
  {
    "id": 817211,
    "date": "2026-07-18T00:05:00Z",
    "sportId": 12,
    "league": "Double-A",
    "home": "San Antonio Missions",
    "away": "Corpus Christi Hooks",
    "homeId": 510,
    "awayId": 482,
    "venue": "Nelson Wolff Stadium",
    "city": "San Antonio",
    "state": "Texas",
    "lat": 29.40978,
    "lon": -98.60189,
    "status": "Scheduled",
    "timeTBD": false,
    "ticketUrl": "https://mlb.tickets.com/?orgId=53849&agency=MILB_MPV&eventId=26676"
  },
  {
    "id": 817416,
    "date": "2026-07-18T00:05:00Z",
    "sportId": 12,
    "league": "Double-A",
    "home": "Frisco RoughRiders",
    "away": "Tulsa Drillers",
    "homeId": 540,
    "awayId": 260,
    "venue": "Riders Field",
    "city": "Frisco",
    "state": "Texas",
    "lat": 33.0984,
    "lon": -96.8197,
    "status": "Scheduled",
    "timeTBD": false,
    "ticketUrl": "https://mlb.tickets.com/?orgId=56589&agency=MILB_MPV&eventId=27245"
  },
  {
    "id": 817278,
    "date": "2026-07-18T00:05:00Z",
    "sportId": 12,
    "league": "Double-A",
    "home": "Northwest Arkansas Naturals",
    "away": "Midland RockHounds",
    "homeId": 1350,
    "awayId": 237,
    "venue": "Arvest Ballpark",
    "city": "Springdale",
    "state": "Arkansas",
    "lat": 36.15968,
    "lon": -94.194624,
    "status": "Scheduled",
    "timeTBD": false,
    "ticketUrl": "https://mlb.tickets.com/?agency=MILB_MPV&orgid=58331&pid=9620613"
  },
  {
    "id": 817556,
    "date": "2026-07-18T00:05:00Z",
    "sportId": 12,
    "league": "Double-A",
    "home": "Arkansas Travelers",
    "away": "Wichita Wind Surge",
    "homeId": 574,
    "awayId": 3898,
    "venue": "Dickey-Stephens Park",
    "city": "North Little Rock",
    "state": "Arkansas",
    "lat": 34.75513,
    "lon": -92.2725899,
    "status": "Scheduled",
    "timeTBD": false,
    "ticketUrl": "https://mlb.tickets.com/?agency=MILB_MPV&orgid=58453&pid=9636898"
  },
  {
    "id": 817137,
    "date": "2026-07-18T00:05:00Z",
    "sportId": 12,
    "league": "Double-A",
    "home": "Springfield Cardinals",
    "away": "Amarillo Sod Poodles",
    "homeId": 440,
    "awayId": 5368,
    "venue": "Route 66 Stadium",
    "city": "Springfield",
    "state": "Missouri",
    "lat": 37.21078,
    "lon": -93.2797,
    "status": "Scheduled",
    "timeTBD": false,
    "ticketUrl": "https://mlb.tickets.com/?agency=MILB_MPV&orgid=57049&pid=9584890"
  },
  {
    "id": 815730,
    "date": "2026-07-18T00:07:00Z",
    "sportId": 11,
    "league": "Triple-A",
    "home": "St. Paul Saints",
    "away": "Louisville Bats",
    "homeId": 1960,
    "awayId": 416,
    "venue": "CHS Field",
    "city": "St. Paul",
    "state": "Minnesota",
    "lat": 44.95089651,
    "lon": -93.08457526,
    "status": "Scheduled",
    "timeTBD": false,
    "ticketUrl": "https://mlb.tickets.com/?orgId=57749&agency=MILB_MPV&eventId=4942"
  },
  {
    "id": 824170,
    "date": "2026-07-18T00:10:00Z",
    "sportId": 1,
    "league": "MLB",
    "home": "Houston Astros",
    "away": "Baltimore Orioles",
    "homeId": 117,
    "awayId": 110,
    "venue": "Daikin Park",
    "city": "Houston",
    "state": "Texas",
    "lat": 29.756967,
    "lon": -95.355509,
    "status": "Scheduled",
    "timeTBD": false,
    "ticketUrl": "https://mlb.tickets.com/?agency=MLB_MPV&orgid=18&pid=9652500"
  },
  {
    "id": 824090,
    "date": "2026-07-18T00:10:00Z",
    "sportId": 1,
    "league": "MLB",
    "home": "Kansas City Royals",
    "away": "San Diego Padres",
    "homeId": 118,
    "awayId": 135,
    "venue": "Kauffman Stadium",
    "city": "Kansas City",
    "state": "Missouri",
    "lat": 39.051567,
    "lon": -94.480483,
    "status": "Scheduled",
    "timeTBD": false,
    "ticketUrl": "https://mlb.tickets.com/?agency=MLB_MPV&orgid=11&pid=9609694"
  },
  {
    "id": 815440,
    "date": "2026-07-18T00:35:00Z",
    "sportId": 11,
    "league": "Triple-A",
    "home": "Albuquerque Isotopes",
    "away": "Sacramento River Cats",
    "homeId": 342,
    "awayId": 105,
    "venue": "Isotopes Park",
    "city": "Albuquerque",
    "state": "New Mexico",
    "lat": 35.06985,
    "lon": -106.62802,
    "status": "Scheduled",
    "timeTBD": false,
    "ticketUrl": "https://www.ticketmaster.com/albuquerque-isotopes-vs-sacramento-river-cats-albuquerque-new-mexico-07-17-2026/event/1E006429AC977350"
  },
  {
    "id": 814904,
    "date": "2026-07-18T00:35:00Z",
    "sportId": 11,
    "league": "Triple-A",
    "home": "Salt Lake Bees",
    "away": "Reno Aces",
    "homeId": 561,
    "awayId": 2310,
    "venue": "The Ballpark at America First Square",
    "city": "South Jordan",
    "state": "Utah",
    "lat": 40.549066970052124,
    "lon": -112.02301999999999,
    "status": "Scheduled",
    "timeTBD": false,
    "ticketUrl": "https://www.ticketmaster.com/event/1E006434E919A0A0"
  },
  {
    "id": 815364,
    "date": "2026-07-18T00:35:00Z",
    "sportId": 11,
    "league": "Triple-A",
    "home": "El Paso Chihuahuas",
    "away": "Sugar Land Space Cowboys",
    "homeId": 4904,
    "awayId": 5434,
    "venue": "Southwest University Park",
    "city": "El Paso",
    "state": "Texas",
    "lat": 31.759277,
    "lon": -106.492526,
    "status": "Scheduled",
    "timeTBD": false,
    "ticketUrl": "https://mlb.tickets.com/?agency=MILB_MPV&orgid=58191&eventid=19693"
  },
  {
    "id": 824332,
    "date": "2026-07-18T00:40:00Z",
    "sportId": 1,
    "league": "MLB",
    "home": "Colorado Rockies",
    "away": "Cincinnati Reds",
    "homeId": 115,
    "awayId": 113,
    "venue": "Coors Field",
    "city": "Denver",
    "state": "Colorado",
    "lat": 39.756042,
    "lon": -104.994136,
    "status": "Scheduled",
    "timeTBD": false,
    "ticketUrl": "https://www.ticketmaster.com/event/1E00636AD36D90B1"
  },
  {
    "id": 821114,
    "date": "2026-07-18T01:30:00Z",
    "sportId": 14,
    "league": "Single-A",
    "home": "Rancho Cucamonga Quakes",
    "away": "Inland Empire 66ers",
    "homeId": 526,
    "awayId": 401,
    "venue": "Morongo Field",
    "city": "Rancho Cucamonga",
    "state": "California",
    "lat": 34.102721,
    "lon": -117.54792,
    "status": "Scheduled",
    "timeTBD": false,
    "ticketUrl": "https://mlb.tickets.com/?orgId=58309&agency=MILB_MPV&eventId=4347"
  },
  {
    "id": 819399,
    "date": "2026-07-18T01:35:00Z",
    "sportId": 13,
    "league": "High-A",
    "home": "Eugene Emeralds",
    "away": "Hillsboro Hops",
    "homeId": 461,
    "awayId": 419,
    "venue": "PK Park",
    "city": "Eugene",
    "state": "Oregon",
    "lat": 44.059012,
    "lon": -123.065482,
    "status": "Scheduled",
    "timeTBD": false,
    "ticketUrl": "https://mlb.tickets.com/?orgId=54053&agency=MILB_MPV&eventId=18963"
  },
  {
    "id": 819205,
    "date": "2026-07-18T01:35:00Z",
    "sportId": 13,
    "league": "High-A",
    "home": "Spokane Indians",
    "away": "Everett AquaSox",
    "homeId": 486,
    "awayId": 403,
    "venue": "Avista Stadium",
    "city": "Spokane",
    "state": "Washington",
    "lat": 47.661351,
    "lon": -117.344426,
    "status": "Scheduled",
    "timeTBD": false,
    "ticketUrl": "https://mlb.tickets.com/?orgId=56051&agency=MILB_MPV&eventId=19267"
  },
  {
    "id": 820915,
    "date": "2026-07-18T01:35:00Z",
    "sportId": 14,
    "league": "Single-A",
    "home": "Visalia Rawhide",
    "away": "Fresno Grizzlies",
    "homeId": 516,
    "awayId": 259,
    "venue": "Valley Strong Ballpark",
    "city": "Visalia",
    "state": "California",
    "lat": 36.3320197,
    "lon": -119.3053325,
    "status": "Scheduled",
    "timeTBD": false,
    "ticketUrl": "https://www.ticketreturn.com/prod2new/BuyNew.asp?EventID=355434"
  },
  {
    "id": 821183,
    "date": "2026-07-18T01:35:00Z",
    "sportId": 14,
    "league": "Single-A",
    "home": "Ontario Tower Buzzers",
    "away": "Lake Elsinore Storm",
    "homeId": 6482,
    "awayId": 103,
    "venue": "ONT Field",
    "city": "Ontario",
    "state": "California",
    "lat": 34.0184639834586,
    "lon": -117.60331808557788,
    "status": "Scheduled",
    "timeTBD": false,
    "ticketUrl": "https://mlb.tickets.com/?orgId=58349&agency=MILB_MPV&eventId=6270"
  },
  {
    "id": 824009,
    "date": "2026-07-18T01:38:00Z",
    "sportId": 1,
    "league": "MLB",
    "home": "Los Angeles Angels",
    "away": "Detroit Tigers",
    "homeId": 108,
    "awayId": 116,
    "venue": "Angel Stadium",
    "city": "Anaheim",
    "state": "California",
    "lat": 33.80019044,
    "lon": -117.8823996,
    "status": "Scheduled",
    "timeTBD": false,
    "ticketUrl": "https://www.mlb.com/app/ballpark/angels/tickets/single-game-tickets/home-game-47/public"
  },
  {
    "id": 824981,
    "date": "2026-07-18T01:40:00Z",
    "sportId": 1,
    "league": "MLB",
    "home": "Athletics",
    "away": "Washington Nationals",
    "homeId": 133,
    "awayId": 120,
    "venue": "Sutter Health Park",
    "city": "Sacramento",
    "state": "California",
    "lat": 38.57994,
    "lon": -121.51246,
    "status": "Scheduled",
    "timeTBD": false,
    "ticketUrl": "https://mlb.tickets.com/?agency=MLB_MPV&orgId=57649&pid=9647664"
  },
  {
    "id": 825060,
    "date": "2026-07-18T01:40:00Z",
    "sportId": 1,
    "league": "MLB",
    "home": "Arizona Diamondbacks",
    "away": "St. Louis Cardinals",
    "homeId": 109,
    "awayId": 138,
    "venue": "Chase Field",
    "city": "Phoenix",
    "state": "Arizona",
    "lat": 33.445302,
    "lon": -112.066687,
    "status": "Scheduled",
    "timeTBD": false,
    "ticketUrl": "https://www.ticketmaster.com/event/1900642CC2D8551D"
  },
  {
    "id": 814749,
    "date": "2026-07-18T02:05:00Z",
    "sportId": 11,
    "league": "Triple-A",
    "home": "Tacoma Rainiers",
    "away": "Oklahoma City Comets",
    "homeId": 529,
    "awayId": 238,
    "venue": "Cheney Stadium",
    "city": "Tacoma",
    "state": "Washington",
    "lat": 47.237981,
    "lon": -122.497643,
    "status": "Scheduled",
    "timeTBD": false,
    "ticketUrl": "https://www.ticketmaster.com/event/0F00643C0177B46B"
  },
  {
    "id": 819134,
    "date": "2026-07-18T02:05:00Z",
    "sportId": 13,
    "league": "High-A",
    "home": "Tri-City Dust Devils",
    "away": "Vancouver Canadians",
    "homeId": 460,
    "awayId": 435,
    "venue": "Gesa Stadium",
    "city": "Pasco",
    "state": "Washington",
    "lat": 46.27032,
    "lon": -119.17079,
    "status": "Scheduled",
    "timeTBD": false,
    "ticketUrl": "https://mlb.tickets.com/?orgId=58369&agency=MILB_MPV&eventId=4815"
  },
  {
    "id": 820977,
    "date": "2026-07-18T02:05:00Z",
    "sportId": 14,
    "league": "Single-A",
    "home": "Stockton Ports",
    "away": "San Jose Giants",
    "homeId": 524,
    "awayId": 476,
    "venue": "Banner Island Ballpark",
    "city": "Stockton",
    "state": "California",
    "lat": 37.954863,
    "lon": -121.297357,
    "status": "Scheduled",
    "timeTBD": false,
    "ticketUrl": "https://mlb.tickets.com/?orgId=56609&agency=MILB_MPV&eventId=18488#"
  },
  {
    "id": 823115,
    "date": "2026-07-18T02:10:00Z",
    "sportId": 1,
    "league": "MLB",
    "home": "Seattle Mariners",
    "away": "San Francisco Giants",
    "homeId": 136,
    "awayId": 137,
    "venue": "T-Mobile Park",
    "city": "Seattle",
    "state": "Washington",
    "lat": 47.591333,
    "lon": -122.33251,
    "status": "Scheduled",
    "timeTBD": false,
    "ticketUrl": "https://www.ticketmaster.com/seattle-mariners-vs-san-francisco-giants-seattle-washington-07-17-2026/event/0F00635BEE9972FB"
  },
  {
    "id": 818864,
    "date": "2026-07-18T17:00:00Z",
    "sportId": 12,
    "league": "Double-A",
    "home": "Binghamton Rumble Ponies",
    "away": "Akron RubberDucks",
    "homeId": 505,
    "awayId": 402,
    "venue": "Mirabito Stadium",
    "city": "Binghamton",
    "state": "New York",
    "lat": 42.1031199,
    "lon": -75.90379,
    "status": "Scheduled",
    "timeTBD": false,
    "ticketUrl": "https://mlb.tickets.com/?orgId=57789&agency=MILB_MPV&eventId=3507"
  },
  {
    "id": 824657,
    "date": "2026-07-18T18:20:00Z",
    "sportId": 1,
    "league": "MLB",
    "home": "Chicago Cubs",
    "away": "Minnesota Twins",
    "homeId": 112,
    "awayId": 142,
    "venue": "Wrigley Field",
    "city": "Chicago",
    "state": "Illinois",
    "lat": 41.948171,
    "lon": -87.655503,
    "status": "Scheduled",
    "timeTBD": false,
    "ticketUrl": "https://mlb.tickets.com/?orgid=5&agency=MLB_MPV&pid=9642660"
  },
  {
    "id": 822790,
    "date": "2026-07-18T19:07:00Z",
    "sportId": 1,
    "league": "MLB",
    "home": "Toronto Blue Jays",
    "away": "Chicago White Sox",
    "homeId": 141,
    "awayId": 145,
    "venue": "Rogers Centre",
    "city": "Toronto",
    "state": "Ontario",
    "lat": 43.64155,
    "lon": -79.38915,
    "status": "Scheduled",
    "timeTBD": false,
    "ticketUrl": "https://www.ticketmaster.ca/event/1000639183363860?artistid=806032&brand=bluejays2&landing=n"
  },
  {
    "id": 824331,
    "date": "2026-07-18T19:10:00Z",
    "sportId": 1,
    "league": "MLB",
    "home": "Colorado Rockies",
    "away": "Cincinnati Reds",
    "homeId": 115,
    "awayId": 113,
    "venue": "Coors Field",
    "city": "Denver",
    "state": "Colorado",
    "lat": 39.756042,
    "lon": -104.994136,
    "status": "Scheduled",
    "timeTBD": false,
    "ticketUrl": "https://www.ticketmaster.com/event/1E00636AD37090B3"
  },
  {
    "id": 823441,
    "date": "2026-07-18T20:05:00Z",
    "sportId": 1,
    "league": "MLB",
    "home": "Philadelphia Phillies",
    "away": "New York Mets",
    "homeId": 143,
    "awayId": 121,
    "venue": "Citizens Bank Park",
    "city": "Philadelphia",
    "state": "Pennsylvania",
    "lat": 39.90539086,
    "lon": -75.16716957,
    "status": "Scheduled",
    "timeTBD": false,
    "ticketUrl": "http://mlb.tickets.com/?agency=MLB_MPV&orgid=21&pid=9643113"
  },
  {
    "id": 824169,
    "date": "2026-07-18T20:10:00Z",
    "sportId": 1,
    "league": "MLB",
    "home": "Houston Astros",
    "away": "Baltimore Orioles",
    "homeId": 117,
    "awayId": 110,
    "venue": "Daikin Park",
    "city": "Houston",
    "state": "Texas",
    "lat": 29.756967,
    "lon": -95.355509,
    "status": "Scheduled",
    "timeTBD": false,
    "ticketUrl": "https://mlb.tickets.com/?agency=MLB_MPV&orgid=18&pid=9652557"
  },
  {
    "id": 824412,
    "date": "2026-07-18T20:10:00Z",
    "sportId": 1,
    "league": "MLB",
    "home": "Cleveland Guardians",
    "away": "Pittsburgh Pirates",
    "homeId": 114,
    "awayId": 134,
    "venue": "Progressive Field",
    "city": "Cleveland",
    "state": "Ohio",
    "lat": 41.495861,
    "lon": -81.685255,
    "status": "Scheduled",
    "timeTBD": false,
    "ticketUrl": "https://mlb.tickets.com/?agency=MLB_MPV&orgid=27&pid=9658550"
  },
  {
    "id": 824088,
    "date": "2026-07-18T20:10:00Z",
    "sportId": 1,
    "league": "MLB",
    "home": "Kansas City Royals",
    "away": "San Diego Padres",
    "homeId": 118,
    "awayId": 135,
    "venue": "Kauffman Stadium",
    "city": "Kansas City",
    "state": "Missouri",
    "lat": 39.051567,
    "lon": -94.480483,
    "status": "Scheduled",
    "timeTBD": false,
    "ticketUrl": "https://mlb.tickets.com/?agency=MLB_MPV&orgid=11&pid=9609651"
  },
  {
    "id": 825059,
    "date": "2026-07-18T20:10:00Z",
    "sportId": 1,
    "league": "MLB",
    "home": "Arizona Diamondbacks",
    "away": "St. Louis Cardinals",
    "homeId": 109,
    "awayId": 138,
    "venue": "Chase Field",
    "city": "Phoenix",
    "state": "Arizona",
    "lat": 33.445302,
    "lon": -112.066687,
    "status": "Scheduled",
    "timeTBD": false,
    "ticketUrl": "https://www.ticketmaster.com/event/1900642CC2DD5523"
  },
  {
    "id": 824738,
    "date": "2026-07-18T20:10:00Z",
    "sportId": 1,
    "league": "MLB",
    "home": "Boston Red Sox",
    "away": "Tampa Bay Rays",
    "homeId": 111,
    "awayId": 139,
    "venue": "Fenway Park",
    "city": "Boston",
    "state": "Massachusetts",
    "lat": 42.346456,
    "lon": -71.097441,
    "status": "Scheduled",
    "timeTBD": false,
    "ticketUrl": "https://mlb.tickets.com/?agency=MLB_MPV&orgid=23&pid=9681688"
  },
  {
    "id": 824899,
    "date": "2026-07-18T20:10:00Z",
    "sportId": 1,
    "league": "MLB",
    "home": "Atlanta Braves",
    "away": "Texas Rangers",
    "homeId": 144,
    "awayId": 140,
    "venue": "Truist Park",
    "city": "Atlanta",
    "state": "Georgia",
    "lat": 33.890672,
    "lon": -84.467641,
    "status": "Scheduled",
    "timeTBD": false,
    "ticketUrl": "https://www.ticketmaster.com/event/0E00634DCBC16E8B"
  },
  {
    "id": 823763,
    "date": "2026-07-18T20:10:00Z",
    "sportId": 1,
    "league": "MLB",
    "home": "Milwaukee Brewers",
    "away": "Miami Marlins",
    "homeId": 158,
    "awayId": 146,
    "venue": "American Family Field",
    "city": "Milwaukee",
    "state": "Wisconsin",
    "lat": 43.02838,
    "lon": -87.97099,
    "status": "Scheduled",
    "timeTBD": false,
    "ticketUrl": "https://mlb.tickets.com/?agency=MLB_MPV&orgid=4&pid=9641396"
  },
  {
    "id": 822074,
    "date": "2026-07-18T20:35:00Z",
    "sportId": 13,
    "league": "High-A",
    "home": "Hub City Spartanburgers",
    "away": "Greensboro Grasshoppers",
    "homeId": 6324,
    "awayId": 477,
    "venue": "Fifth Third Park",
    "city": "Spartanburg",
    "state": "South Carolina",
    "lat": 34.9449402,
    "lon": -81.9359415,
    "status": "Scheduled",
    "timeTBD": false,
    "ticketUrl": "https://mlb.tickets.com/?orgid=57729&agency=MILB_MPV&eventId=14889"
  },
  {
    "id": 819459,
    "date": "2026-07-18T21:10:00Z",
    "sportId": 13,
    "league": "High-A",
    "home": "Wisconsin Timber Rattlers",
    "away": "Quad Cities River Bandits",
    "homeId": 572,
    "awayId": 565,
    "venue": "Neuroscience Group Field",
    "city": "Appleton",
    "state": "Wisconsin",
    "lat": 44.282871,
    "lon": -88.469427,
    "status": "Scheduled",
    "timeTBD": false,
    "ticketUrl": "https://mlb.tickets.com/?agency=MILB_MPV&orgid=58269&mkt_code=WTRWEB&eventId=3124"
  },
  {
    "id": 819671,
    "date": "2026-07-18T21:15:00Z",
    "sportId": 13,
    "league": "High-A",
    "home": "Quad Cities River Bandits",
    "away": "Wisconsin Timber Rattlers",
    "homeId": 565,
    "awayId": 572,
    "venue": "Neuroscience Group Field",
    "city": "Appleton",
    "state": "Wisconsin",
    "lat": 44.282871,
    "lon": -88.469427,
    "status": "Scheduled",
    "timeTBD": true,
    "ticketUrl": null
  },
  {
    "id": 820123,
    "date": "2026-07-18T21:30:00Z",
    "sportId": 13,
    "league": "High-A",
    "home": "Cedar Rapids Kernels",
    "away": "Beloit Sky Carp",
    "homeId": 492,
    "awayId": 554,
    "venue": "Veterans Memorial Stadium",
    "city": "Cedar Rapids",
    "state": "Iowa",
    "lat": 41.96785,
    "lon": -91.68662,
    "status": "Scheduled",
    "timeTBD": false,
    "ticketUrl": "https://www.ticketreturn.com/prod2new/BuyNew.asp?EventID=358091#"
  },
  {
    "id": 820130,
    "date": "2026-07-18T21:35:00Z",
    "sportId": 13,
    "league": "High-A",
    "home": "Cedar Rapids Kernels",
    "away": "Beloit Sky Carp",
    "homeId": 492,
    "awayId": 554,
    "venue": "Veterans Memorial Stadium",
    "city": "Cedar Rapids",
    "state": "Iowa",
    "lat": 41.96785,
    "lon": -91.68662,
    "status": "Scheduled",
    "timeTBD": true,
    "ticketUrl": null
  },
  {
    "id": 815727,
    "date": "2026-07-18T21:37:00Z",
    "sportId": 11,
    "league": "Triple-A",
    "home": "St. Paul Saints",
    "away": "Louisville Bats",
    "homeId": 1960,
    "awayId": 416,
    "venue": "CHS Field",
    "city": "St. Paul",
    "state": "Minnesota",
    "lat": 44.95089651,
    "lon": -93.08457526,
    "status": "Scheduled",
    "timeTBD": false,
    "ticketUrl": "https://mlb.tickets.com/?orgId=57749&agency=MILB_MPV&eventId=4943"
  },
  {
    "id": 816263,
    "date": "2026-07-18T21:42:00Z",
    "sportId": 11,
    "league": "Triple-A",
    "home": "Louisville Bats",
    "away": "St. Paul Saints",
    "homeId": 416,
    "awayId": 1960,
    "venue": "CHS Field",
    "city": "St. Paul",
    "state": "Minnesota",
    "lat": 44.95089651,
    "lon": -93.08457526,
    "status": "Scheduled",
    "timeTBD": true,
    "ticketUrl": null
  },
  {
    "id": 818660,
    "date": "2026-07-18T22:00:00Z",
    "sportId": 12,
    "league": "Double-A",
    "home": "Harrisburg Senators",
    "away": "New Hampshire Fisher Cats",
    "homeId": 547,
    "awayId": 463,
    "venue": "FNB Field",
    "city": "Harrisburg",
    "state": "Pennsylvania",
    "lat": 40.2568294,
    "lon": -76.8896522,
    "status": "Scheduled",
    "timeTBD": false,
    "ticketUrl": "https://mlb.tickets.com/?orgId=58589&agency=MILB_MPV&eventId=5369#"
  },
  {
    "id": 818445,
    "date": "2026-07-18T22:00:00Z",
    "sportId": 12,
    "league": "Double-A",
    "home": "Portland Sea Dogs",
    "away": "Somerset Patriots",
    "homeId": 546,
    "awayId": 1956,
    "venue": "Delta Dental Park",
    "city": "Portland",
    "state": "Maine",
    "lat": 43.6562399,
    "lon": -70.27873,
    "status": "Scheduled",
    "timeTBD": false,
    "ticketUrl": "https://mlb.tickets.com/?agency=MILB_MPV&orgId=56873&eventId=14662"
  },
  {
    "id": 822337,
    "date": "2026-07-18T22:00:00Z",
    "sportId": 13,
    "league": "High-A",
    "home": "Brooklyn Cyclones",
    "away": "Hudson Valley Renegades",
    "homeId": 453,
    "awayId": 537,
    "venue": "Maimonides Park",
    "city": "Brooklyn",
    "state": "New York",
    "lat": 40.57392,
    "lon": -73.98473,
    "status": "Scheduled",
    "timeTBD": false,
    "ticketUrl": "https://mlb.tickets.com/?orgid=58029&agency=MILB_MPV&eventId=4047"
  },
  {
    "id": 820389,
    "date": "2026-07-18T22:00:00Z",
    "sportId": 14,
    "league": "Single-A",
    "home": "Palm Beach Cardinals",
    "away": "St. Lucie Mets",
    "homeId": 279,
    "awayId": 507,
    "venue": "Roger Dean Chevrolet Stadium",
    "city": "Jupiter",
    "state": "Florida",
    "lat": 26.890957,
    "lon": -80.116365,
    "status": "Scheduled",
    "timeTBD": false,
    "ticketUrl": "https://mlb.tickets.com/?agency=JUPV_PL_MPV&orgid=57091&pid=9680159"
  },
  {
    "id": 821817,
    "date": "2026-07-18T22:05:00Z",
    "sportId": 13,
    "league": "High-A",
    "home": "Wilmington Blue Rocks",
    "away": "Jersey Shore BlueClaws",
    "homeId": 426,
    "awayId": 427,
    "venue": "Frawley Stadium",
    "city": "Wilmington",
    "state": "Delaware",
    "lat": 39.731809,
    "lon": -75.564174,
    "status": "Scheduled",
    "timeTBD": false,
    "ticketUrl": "https://lf1.glitnirticketing.com/lfticket/web/stadiumg.php?status_id=2&event_id=247"
  },
  {
    "id": 820583,
    "date": "2026-07-18T22:05:00Z",
    "sportId": 14,
    "league": "Single-A",
    "home": "Fort Myers Mighty Mussels",
    "away": "Lakeland Flying Tigers",
    "homeId": 509,
    "awayId": 570,
    "venue": "Lee Health Sports Complex",
    "city": "Fort Myers",
    "state": "Florida",
    "lat": 26.537803,
    "lon": -81.841973,
    "status": "Scheduled",
    "timeTBD": false,
    "ticketUrl": "https://mlb.tickets.com/?orgId=55029&agency=MILB_MPV&eventId=65065"
  },
  {
    "id": 827458,
    "date": "2026-07-18T22:05:00Z",
    "sportId": 14,
    "league": "Single-A",
    "home": "Charleston RiverDogs",
    "away": "Columbia Fireflies",
    "homeId": 233,
    "awayId": 3705,
    "venue": "Joseph P. Riley, Jr. Ballpark",
    "city": "Charleston",
    "state": "South Carolina",
    "lat": 32.790421,
    "lon": -79.961332,
    "status": "Scheduled",
    "timeTBD": false,
    "ticketUrl": "https://mlb.tickets.com/?orgId=55016&agency=MILB_MPV&eventId=61138"
  },
  {
    "id": 818043,
    "date": "2026-07-18T22:30:00Z",
    "sportId": 12,
    "league": "Double-A",
    "home": "Chattanooga Lookouts",
    "away": "Columbus Clingstones",
    "homeId": 498,
    "awayId": 6325,
    "venue": "Erlanger Park",
    "city": "Chattanooga",
    "state": "Tennessee",
    "lat": 35.02602956034051,
    "lon": -85.32085229852302,
    "status": "Scheduled",
    "timeTBD": false,
    "ticketUrl": "https://mlb.tickets.com/?orgId=57129&agency=MILB_MPV&eventId=61292"
  },
  {
    "id": 820653,
    "date": "2026-07-18T22:30:00Z",
    "sportId": 14,
    "league": "Single-A",
    "home": "Dunedin Blue Jays",
    "away": "Clearwater Threshers",
    "homeId": 424,
    "awayId": 566,
    "venue": "TD Ballpark",
    "city": "Dunedin",
    "state": "Florida",
    "lat": 27.9745812,
    "lon": -82.7913301,
    "status": "Scheduled",
    "timeTBD": false,
    "ticketUrl": "https://am.ticketmaster.com/tbjrcminorleague/buy/ism/U0QwNzE4MjY="
  },
  {
    "id": 820254,
    "date": "2026-07-18T22:30:00Z",
    "sportId": 14,
    "league": "Single-A",
    "home": "Tampa Tarpons",
    "away": "Bradenton Marauders",
    "homeId": 587,
    "awayId": 3390,
    "venue": "George M. Steinbrenner Field",
    "city": "Tampa",
    "state": "Florida",
    "lat": 27.97997,
    "lon": -82.50702,
    "status": "Scheduled",
    "timeTBD": false,
    "ticketUrl": "https://www.ticketmaster.com/event/0D0064752502ADEF"
  },
  {
    "id": 815809,
    "date": "2026-07-18T22:35:00Z",
    "sportId": 11,
    "league": "Triple-A",
    "home": "Scranton/Wilkes-Barre RailRiders",
    "away": "Worcester Red Sox",
    "homeId": 531,
    "awayId": 533,
    "venue": "PNC Field",
    "city": "Moosic",
    "state": "Pennsylvania",
    "lat": 41.360672,
    "lon": -75.683676,
    "status": "Scheduled",
    "timeTBD": false,
    "ticketUrl": "https://www.ticketmaster.com/event/02006436E1AADEDD"
  },
  {
    "id": 815650,
    "date": "2026-07-18T22:35:00Z",
    "sportId": 11,
    "league": "Triple-A",
    "home": "Syracuse Mets",
    "away": "Buffalo Bisons",
    "homeId": 552,
    "awayId": 422,
    "venue": "NBT Bank Stadium",
    "city": "Syracuse",
    "state": "New York",
    "lat": 43.079531,
    "lon": -76.165419,
    "status": "Scheduled",
    "timeTBD": false,
    "ticketUrl": "https://mlb.tickets.com/?orgId=57969&agency=MILB_MPV&eventId=3205"
  },
  {
    "id": 818797,
    "date": "2026-07-18T22:35:00Z",
    "sportId": 12,
    "league": "Double-A",
    "home": "Chesapeake Baysox",
    "away": "Hartford Yard Goats",
    "homeId": 418,
    "awayId": 538,
    "venue": "Prince George's Stadium",
    "city": "Bowie",
    "state": "Maryland",
    "lat": 38.946114,
    "lon": -76.709334,
    "status": "Scheduled",
    "timeTBD": false,
    "ticketUrl": "https://www.ticketreturn.com/prod2/Buy.asp?EventID=358272"
  },
  {
    "id": 820718,
    "date": "2026-07-18T22:35:00Z",
    "sportId": 14,
    "league": "Single-A",
    "home": "Daytona Tortugas",
    "away": "Jupiter Hammerheads",
    "homeId": 450,
    "awayId": 479,
    "venue": "Jackie Robinson Ballpark",
    "city": "Daytona Beach",
    "state": "Florida",
    "lat": 29.20922,
    "lon": -81.01596,
    "status": "Scheduled",
    "timeTBD": false,
    "ticketUrl": "https://mlb.tickets.com/?agency=MILB_MPV&orgid=57209&pid=9599081"
  },
  {
    "id": 827184,
    "date": "2026-07-18T22:35:00Z",
    "sportId": 14,
    "league": "Single-A",
    "home": "Fredericksburg Nationals",
    "away": "Hill City Howlers",
    "homeId": 436,
    "awayId": 481,
    "venue": "Virginia Credit Union Stadium",
    "city": "Fredericksburg",
    "state": "Virginia",
    "lat": 38.3181302,
    "lon": -77.5124029,
    "status": "Scheduled",
    "timeTBD": false,
    "ticketUrl": "https://mlb.tickets.com/?agency=MILB_MPV&orgid=58409&eventId=3812"
  },
  {
    "id": 826854,
    "date": "2026-07-18T22:35:00Z",
    "sportId": 14,
    "league": "Single-A",
    "home": "Salem RidgeYaks",
    "away": "Delmarva Shorebirds",
    "homeId": 414,
    "awayId": 548,
    "venue": "Carilion Clinic Field",
    "city": "Salem",
    "state": "Virginia",
    "lat": 37.2861162,
    "lon": -80.037161,
    "status": "Scheduled",
    "timeTBD": false,
    "ticketUrl": "https://mlb.tickets.com/?orgId=57031&agency=MILB_MPV&eventId=14739"
  },
  {
    "id": 816700,
    "date": "2026-07-18T22:45:00Z",
    "sportId": 11,
    "league": "Triple-A",
    "home": "Durham Bulls",
    "away": "Charlotte Knights",
    "homeId": 234,
    "awayId": 494,
    "venue": "Durham Bulls Athletic Park",
    "city": "Durham",
    "state": "North Carolina",
    "lat": 35.99158,
    "lon": -78.90401,
    "status": "Scheduled",
    "timeTBD": false,
    "ticketUrl": "https://www.ticketmaster.com/event/2D006443AC99A0DE"
  },
  {
    "id": 815878,
    "date": "2026-07-18T22:45:00Z",
    "sportId": 11,
    "league": "Triple-A",
    "home": "Rochester Red Wings",
    "away": "Jacksonville Jumbo Shrimp",
    "homeId": 534,
    "awayId": 564,
    "venue": "ESL Ballpark",
    "city": "Rochester",
    "state": "New York",
    "lat": 43.158301,
    "lon": -77.619748,
    "status": "Scheduled",
    "timeTBD": false,
    "ticketUrl": "https://www.ticketreturn.com/prod2new/BuyNew.asp?EventID=354343"
  },
  {
    "id": 818384,
    "date": "2026-07-18T22:45:00Z",
    "sportId": 12,
    "league": "Double-A",
    "home": "Reading Fightin Phils",
    "away": "Altoona Curve",
    "homeId": 522,
    "awayId": 452,
    "venue": "FirstEnergy Stadium",
    "city": "Reading",
    "state": "Pennsylvania",
    "lat": 40.365558,
    "lon": -75.933816,
    "status": "Scheduled",
    "timeTBD": false,
    "ticketUrl": "https://www.ticketreturn.com/prod2/Buy.asp?EventID=356244"
  },
  {
    "id": 822152,
    "date": "2026-07-18T22:45:00Z",
    "sportId": 13,
    "league": "High-A",
    "home": "Greenville Drive",
    "away": "Frederick Keys",
    "homeId": 428,
    "awayId": 493,
    "venue": "Fluor Field at the West End",
    "city": "Greenville",
    "state": "South Carolina",
    "lat": 34.84297,
    "lon": -82.40893,
    "status": "Scheduled",
    "timeTBD": false,
    "ticketUrl": "https://gd1.glitnirticketing.com/gdticket/web/stadiumg.php?status_id=2&event_id=77"
  },
  {
    "id": 821886,
    "date": "2026-07-18T22:45:00Z",
    "sportId": 13,
    "league": "High-A",
    "home": "Rome Emperors",
    "away": "Asheville Tourists",
    "homeId": 432,
    "awayId": 573,
    "venue": "AdventHealth Stadium",
    "city": "Rome",
    "state": "Georgia",
    "lat": 34.285832,
    "lon": -85.167211,
    "status": "Scheduled",
    "timeTBD": false,
    "ticketUrl": "https://www.ticketmaster.com/event/0E0064549D20A8BB"
  },
  {
    "id": 819859,
    "date": "2026-07-18T23:00:00Z",
    "sportId": 13,
    "league": "High-A",
    "home": "Lake County Captains",
    "away": "Dayton Dragons",
    "homeId": 437,
    "awayId": 459,
    "venue": "Classic Auto Group Park",
    "city": "Eastlake",
    "state": "Ohio",
    "lat": 41.6424351,
    "lon": -81.4367781,
    "status": "Scheduled",
    "timeTBD": false,
    "ticketUrl": "https://mlb.tickets.com/?orgId=57929&agency=MILB_MPV&eventId=2071"
  },
  {
    "id": 827118,
    "date": "2026-07-18T23:00:00Z",
    "sportId": 14,
    "league": "Single-A",
    "home": "Hickory Crawdads",
    "away": "Wilson Warbirds",
    "homeId": 448,
    "awayId": 249,
    "venue": "L.P. Frans Stadium",
    "city": "Hickory",
    "state": "North Carolina",
    "lat": 35.747289,
    "lon": -81.3778848,
    "status": "Scheduled",
    "timeTBD": false,
    "ticketUrl": "https://mlb.tickets.com/?agency=MILB_MPV&orgid=57071&eventid=15062"
  },
  {
    "id": 827046,
    "date": "2026-07-18T23:00:00Z",
    "sportId": 14,
    "league": "Single-A",
    "home": "Kannapolis Cannon Ballers",
    "away": "Myrtle Beach Pelicans",
    "homeId": 487,
    "awayId": 521,
    "venue": "Atrium Health Ballpark",
    "city": "Kannapolis",
    "state": "North Carolina",
    "lat": 35.4968555,
    "lon": -80.6282677,
    "status": "Scheduled",
    "timeTBD": false,
    "ticketUrl": "https://www.ticketreturn.com/prod2/Buy.asp?EventID=355604"
  },
  {
    "id": 816782,
    "date": "2026-07-18T23:05:00Z",
    "sportId": 11,
    "league": "Triple-A",
    "home": "Columbus Clippers",
    "away": "Indianapolis Indians",
    "homeId": 445,
    "awayId": 484,
    "venue": "Huntington Park",
    "city": "Columbus",
    "state": "Ohio",
    "lat": 39.96868,
    "lon": -83.01102,
    "status": "Scheduled",
    "timeTBD": false,
    "ticketUrl": "https://www.ticketmaster.com/event/05006374AB7B990C"
  },
  {
    "id": 815586,
    "date": "2026-07-18T23:05:00Z",
    "sportId": 11,
    "league": "Triple-A",
    "home": "Toledo Mud Hens",
    "away": "Gwinnett Stripers",
    "homeId": 512,
    "awayId": 431,
    "venue": "Fifth Third Field",
    "city": "Toledo",
    "state": "Ohio",
    "lat": 41.64767,
    "lon": -83.53838,
    "status": "Scheduled",
    "timeTBD": false,
    "ticketUrl": "https://mlb.tickets.com/?orgid=54891&agency=MILB_MPV&eventid=65180"
  },
  {
    "id": 815956,
    "date": "2026-07-18T23:05:00Z",
    "sportId": 11,
    "league": "Triple-A",
    "home": "Omaha Storm Chasers",
    "away": "Lehigh Valley IronPigs",
    "homeId": 541,
    "awayId": 1410,
    "venue": "Werner Park",
    "city": "Papillion",
    "state": "Nebraska",
    "lat": 41.1510945,
    "lon": -96.1057988,
    "status": "Scheduled",
    "timeTBD": false,
    "ticketUrl": "https://mlb.tickets.com/?agency=MILB_MPV&orgid=57870&pid=9592064"
  },
  {
    "id": 817828,
    "date": "2026-07-18T23:05:00Z",
    "sportId": 12,
    "league": "Double-A",
    "home": "Montgomery Biscuits",
    "away": "Knoxville Smokies",
    "homeId": 421,
    "awayId": 553,
    "venue": "DABOS Park",
    "city": "Montgomery",
    "state": "Alabama",
    "lat": 32.382298,
    "lon": -86.310592,
    "status": "Scheduled",
    "timeTBD": false,
    "ticketUrl": "https://www.ticketreturn.com/prod2new/BuyNew.asp?EventID=356470"
  },
  {
    "id": 817274,
    "date": "2026-07-18T23:05:00Z",
    "sportId": 12,
    "league": "Double-A",
    "home": "Northwest Arkansas Naturals",
    "away": "Midland RockHounds",
    "homeId": 1350,
    "awayId": 237,
    "venue": "Arvest Ballpark",
    "city": "Springdale",
    "state": "Arkansas",
    "lat": 36.15968,
    "lon": -94.194624,
    "status": "Scheduled",
    "timeTBD": false,
    "ticketUrl": "https://mlb.tickets.com/?agency=MILB_MPV&orgid=58331&pid=9620614"
  },
  {
    "id": 818316,
    "date": "2026-07-18T23:05:00Z",
    "sportId": 12,
    "league": "Double-A",
    "home": "Richmond Flying Squirrels",
    "away": "Erie SeaWolves",
    "homeId": 3410,
    "awayId": 106,
    "venue": "CarMax Park",
    "city": "Richmond",
    "state": "Virginia",
    "lat": null,
    "lon": null,
    "status": "Scheduled",
    "timeTBD": false,
    "ticketUrl": "https://mlb.tickets.com/?agency=MILB_MPV&&orgid=53889&eventId=62249"
  },
  {
    "id": 817560,
    "date": "2026-07-18T23:05:00Z",
    "sportId": 12,
    "league": "Double-A",
    "home": "Arkansas Travelers",
    "away": "Wichita Wind Surge",
    "homeId": 574,
    "awayId": 3898,
    "venue": "Dickey-Stephens Park",
    "city": "North Little Rock",
    "state": "Arkansas",
    "lat": 34.75513,
    "lon": -92.2725899,
    "status": "Scheduled",
    "timeTBD": false,
    "ticketUrl": "https://mlb.tickets.com/?agency=MILB_MPV&orgid=58453&pid=9636899"
  },
  {
    "id": 818174,
    "date": "2026-07-18T23:05:00Z",
    "sportId": 12,
    "league": "Double-A",
    "home": "Biloxi Shuckers",
    "away": "Pensacola Blue Wahoos",
    "homeId": 5015,
    "awayId": 4124,
    "venue": "Keesler Federal Park",
    "city": "Biloxi",
    "state": "Mississippi",
    "lat": 30.395421,
    "lon": -88.893217,
    "status": "Scheduled",
    "timeTBD": false,
    "ticketUrl": "https://www.ticketmaster.com/event/1B006429EC23DE4F"
  },
  {
    "id": 819606,
    "date": "2026-07-18T23:05:00Z",
    "sportId": 13,
    "league": "High-A",
    "home": "South Bend Cubs",
    "away": "Peoria Chiefs",
    "homeId": 550,
    "awayId": 443,
    "venue": "Four Winds Field",
    "city": "South Bend",
    "state": "Indiana",
    "lat": 41.6704099,
    "lon": -86.25547,
    "status": "Scheduled",
    "timeTBD": false,
    "ticketUrl": "https://mlb.tickets.com/?agency=MILB_MPV&orgid=55571&pid=9586904"
  },
  {
    "id": 819924,
    "date": "2026-07-18T23:05:00Z",
    "sportId": 13,
    "league": "High-A",
    "home": "Great Lakes Loons",
    "away": "West Michigan Whitecaps",
    "homeId": 456,
    "awayId": 582,
    "venue": "Dow Diamond",
    "city": "Midland",
    "state": "Michigan",
    "lat": 43.6089355,
    "lon": -84.2397878,
    "status": "Scheduled",
    "timeTBD": false,
    "ticketUrl": "https://mlb.tickets.com/?agency=MILB_MPV&orgId=54391&eventId=60981"
  },
  {
    "id": 819795,
    "date": "2026-07-18T23:05:00Z",
    "sportId": 13,
    "league": "High-A",
    "home": "Lansing Lugnuts",
    "away": "Fort Wayne TinCaps",
    "homeId": 499,
    "awayId": 584,
    "venue": "Jackson Field",
    "city": "Lansing",
    "state": "Michigan",
    "lat": 42.73465,
    "lon": -84.5455999,
    "status": "Scheduled",
    "timeTBD": false,
    "ticketUrl": "https://mlb.tickets.com/?agency=MILB_MPV&orgid=57009&eventId=15248"
  },
  {
    "id": 827244,
    "date": "2026-07-18T23:05:00Z",
    "sportId": 14,
    "league": "Single-A",
    "home": "Fayetteville Woodpeckers",
    "away": "Augusta GreenJackets",
    "homeId": 3712,
    "awayId": 478,
    "venue": "SEGRA Stadium",
    "city": "Fayetteville",
    "state": "North Carolina",
    "lat": 35.054357,
    "lon": -78.8851444,
    "status": "Scheduled",
    "timeTBD": false,
    "ticketUrl": "https://mlb.tickets.com/?orgId=58689&agency=MILB_MPV&eventId=7292"
  },
  {
    "id": 818109,
    "date": "2026-07-18T23:30:00Z",
    "sportId": 12,
    "league": "Double-A",
    "home": "Birmingham Barons",
    "away": "Rocket City Trash Pandas",
    "homeId": 247,
    "awayId": 559,
    "venue": "Regions Field",
    "city": "Birmingham",
    "state": "Alabama",
    "lat": 33.5077928,
    "lon": -86.8120366,
    "status": "Scheduled",
    "timeTBD": false,
    "ticketUrl": "https://mlb.tickets.com/?agency=MILB_MPV&orgid=57391&eventId=14965"
  },
  {
    "id": 816187,
    "date": "2026-07-18T23:35:00Z",
    "sportId": 11,
    "league": "Triple-A",
    "home": "Memphis Redbirds",
    "away": "Iowa Cubs",
    "homeId": 235,
    "awayId": 451,
    "venue": "AutoZone Park",
    "city": "Memphis",
    "state": "Tennessee",
    "lat": 35.14297,
    "lon": -90.04924,
    "status": "Scheduled",
    "timeTBD": false,
    "ticketUrl": "https://mlb.tickets.com/?agency=MILB_MPV&orgId=56789&eventId=17632"
  },
  {
    "id": 816101,
    "date": "2026-07-18T23:35:00Z",
    "sportId": 11,
    "league": "Triple-A",
    "home": "Nashville Sounds",
    "away": "Norfolk Tides",
    "homeId": 556,
    "awayId": 568,
    "venue": "First Horizon Park",
    "city": "Nashville",
    "state": "Tennessee",
    "lat": 36.173218,
    "lon": -86.785171,
    "status": "Scheduled",
    "timeTBD": false,
    "ticketUrl": "https://www.ticketmaster.com/event/1B00642C79354D32?utm_source=Sounds&utm_medium=TLINK&utm_campaign=Sounds-TLINK"
  },
  {
    "id": 817139,
    "date": "2026-07-18T23:35:00Z",
    "sportId": 12,
    "league": "Double-A",
    "home": "Springfield Cardinals",
    "away": "Amarillo Sod Poodles",
    "homeId": 440,
    "awayId": 5368,
    "venue": "Route 66 Stadium",
    "city": "Springfield",
    "state": "Missouri",
    "lat": 37.21078,
    "lon": -93.2797,
    "status": "Scheduled",
    "timeTBD": false,
    "ticketUrl": "https://mlb.tickets.com/?agency=MILB_MPV&orgid=57049&pid=9584829"
  },
  {
    "id": 822413,
    "date": "2026-07-18T23:35:00Z",
    "sportId": 13,
    "league": "High-A",
    "home": "Bowling Green Hot Rods",
    "away": "Winston-Salem Dash",
    "homeId": 2498,
    "awayId": 580,
    "venue": "Bowling Green Ballpark",
    "city": "Bowling Green",
    "state": "Kentucky",
    "lat": 36.9957207,
    "lon": -86.4411401,
    "status": "Scheduled",
    "timeTBD": false,
    "ticketUrl": "https://www.ticketreturn.com/prod2new//BuyClear.asp?EventID=354479&continue=buynew.asp"
  },
  {
    "id": 815054,
    "date": "2026-07-19T00:05:00Z",
    "sportId": 11,
    "league": "Triple-A",
    "home": "Round Rock Express",
    "away": "Las Vegas Aviators",
    "homeId": 102,
    "awayId": 400,
    "venue": "Dell Diamond",
    "city": "Round Rock",
    "state": "Texas",
    "lat": 30.527463,
    "lon": -97.630397,
    "status": "Scheduled",
    "timeTBD": false,
    "ticketUrl": "https://mlb.tickets.com/?orgId=58189&agency=MILB_MPV&eventId=27383"
  },
  {
    "id": 817207,
    "date": "2026-07-19T00:05:00Z",
    "sportId": 12,
    "league": "Double-A",
    "home": "San Antonio Missions",
    "away": "Corpus Christi Hooks",
    "homeId": 510,
    "awayId": 482,
    "venue": "Nelson Wolff Stadium",
    "city": "San Antonio",
    "state": "Texas",
    "lat": 29.40978,
    "lon": -98.60189,
    "status": "Scheduled",
    "timeTBD": false,
    "ticketUrl": "https://mlb.tickets.com/?orgId=53849&agency=MILB_MPV&eventId=26677"
  },
  {
    "id": 817417,
    "date": "2026-07-19T00:05:00Z",
    "sportId": 12,
    "league": "Double-A",
    "home": "Frisco RoughRiders",
    "away": "Tulsa Drillers",
    "homeId": 540,
    "awayId": 260,
    "venue": "Riders Field",
    "city": "Frisco",
    "state": "Texas",
    "lat": 33.0984,
    "lon": -96.8197,
    "status": "Scheduled",
    "timeTBD": false,
    "ticketUrl": "https://mlb.tickets.com/?orgId=56589&agency=MILB_MPV&eventId=27246"
  },
  {
    "id": 819398,
    "date": "2026-07-19T00:05:00Z",
    "sportId": 13,
    "league": "High-A",
    "home": "Eugene Emeralds",
    "away": "Hillsboro Hops",
    "homeId": 461,
    "awayId": 419,
    "venue": "PK Park",
    "city": "Eugene",
    "state": "Oregon",
    "lat": 44.059012,
    "lon": -123.065482,
    "status": "Scheduled",
    "timeTBD": false,
    "ticketUrl": "https://mlb.tickets.com/?orgId=54053&agency=MILB_MPV&eventId=18964"
  },
  {
    "id": 823116,
    "date": "2026-07-19T00:08:00Z",
    "sportId": 1,
    "league": "MLB",
    "home": "Seattle Mariners",
    "away": "San Francisco Giants",
    "homeId": 136,
    "awayId": 137,
    "venue": "T-Mobile Park",
    "city": "Seattle",
    "state": "Washington",
    "lat": 47.591333,
    "lon": -122.33251,
    "status": "Scheduled",
    "timeTBD": false,
    "ticketUrl": "https://www.ticketmaster.com/seattle-mariners-vs-san-francisco-giants-seattle-washington-07-18-2026/event/0F00635BEE9D72FD"
  },
  {
    "id": 823523,
    "date": "2026-07-19T00:08:00Z",
    "sportId": 1,
    "league": "MLB",
    "home": "New York Yankees",
    "away": "Los Angeles Dodgers",
    "homeId": 147,
    "awayId": 119,
    "venue": "Yankee Stadium",
    "city": "Bronx",
    "state": "New York",
    "lat": 40.82919482,
    "lon": -73.9264977,
    "status": "Scheduled",
    "timeTBD": false,
    "ticketUrl": "https://www.mlb.com/app/ballpark/yankees/tickets/single-game-tickets/2026/home-game-47"
  },
  {
    "id": 815433,
    "date": "2026-07-19T00:35:00Z",
    "sportId": 11,
    "league": "Triple-A",
    "home": "Albuquerque Isotopes",
    "away": "Sacramento River Cats",
    "homeId": 342,
    "awayId": 105,
    "venue": "Isotopes Park",
    "city": "Albuquerque",
    "state": "New Mexico",
    "lat": 35.06985,
    "lon": -106.62802,
    "status": "Scheduled",
    "timeTBD": false,
    "ticketUrl": "https://www.ticketmaster.com/albuquerque-isotopes-vs-sacramento-river-cats-albuquerque-new-mexico-07-18-2026/event/1E006429AC9C7361"
  },
  {
    "id": 814907,
    "date": "2026-07-19T00:35:00Z",
    "sportId": 11,
    "league": "Triple-A",
    "home": "Salt Lake Bees",
    "away": "Reno Aces",
    "homeId": 561,
    "awayId": 2310,
    "venue": "The Ballpark at America First Square",
    "city": "South Jordan",
    "state": "Utah",
    "lat": 40.549066970052124,
    "lon": -112.02301999999999,
    "status": "Scheduled",
    "timeTBD": false,
    "ticketUrl": "https://www.ticketmaster.com/event/1E006434E91EA0A3"
  },
  {
    "id": 815357,
    "date": "2026-07-19T00:35:00Z",
    "sportId": 11,
    "league": "Triple-A",
    "home": "El Paso Chihuahuas",
    "away": "Sugar Land Space Cowboys",
    "homeId": 4904,
    "awayId": 5434,
    "venue": "Southwest University Park",
    "city": "El Paso",
    "state": "Texas",
    "lat": 31.759277,
    "lon": -106.492526,
    "status": "Scheduled",
    "timeTBD": false,
    "ticketUrl": "https://mlb.tickets.com/?agency=MILB_MPV&orgid=58191&eventid=19694"
  },
  {
    "id": 814750,
    "date": "2026-07-19T01:05:00Z",
    "sportId": 11,
    "league": "Triple-A",
    "home": "Tacoma Rainiers",
    "away": "Oklahoma City Comets",
    "homeId": 529,
    "awayId": 238,
    "venue": "Cheney Stadium",
    "city": "Tacoma",
    "state": "Washington",
    "lat": 47.237981,
    "lon": -122.497643,
    "status": "Scheduled",
    "timeTBD": false,
    "ticketUrl": "https://www.ticketmaster.com/event/0F00643C017BB471"
  },
  {
    "id": 821180,
    "date": "2026-07-19T01:05:00Z",
    "sportId": 14,
    "league": "Single-A",
    "home": "Ontario Tower Buzzers",
    "away": "Lake Elsinore Storm",
    "homeId": 6482,
    "awayId": 103,
    "venue": "ONT Field",
    "city": "Ontario",
    "state": "California",
    "lat": 34.0184639834586,
    "lon": -117.60331808557788,
    "status": "Scheduled",
    "timeTBD": false,
    "ticketUrl": "https://mlb.tickets.com/?orgId=58349&agency=MILB_MPV&eventId=6271"
  },
  {
    "id": 821115,
    "date": "2026-07-19T01:30:00Z",
    "sportId": 14,
    "league": "Single-A",
    "home": "Rancho Cucamonga Quakes",
    "away": "Inland Empire 66ers",
    "homeId": 526,
    "awayId": 401,
    "venue": "Morongo Field",
    "city": "Rancho Cucamonga",
    "state": "California",
    "lat": 34.102721,
    "lon": -117.54792,
    "status": "Scheduled",
    "timeTBD": false,
    "ticketUrl": "https://mlb.tickets.com/?orgId=58309&agency=MILB_MPV&eventId=4348"
  },
  {
    "id": 819202,
    "date": "2026-07-19T01:35:00Z",
    "sportId": 13,
    "league": "High-A",
    "home": "Spokane Indians",
    "away": "Everett AquaSox",
    "homeId": 486,
    "awayId": 403,
    "venue": "Avista Stadium",
    "city": "Spokane",
    "state": "Washington",
    "lat": 47.661351,
    "lon": -117.344426,
    "status": "Scheduled",
    "timeTBD": false,
    "ticketUrl": "https://mlb.tickets.com/?orgId=56051&agency=MILB_MPV&eventId=19268"
  },
  {
    "id": 820916,
    "date": "2026-07-19T01:35:00Z",
    "sportId": 14,
    "league": "Single-A",
    "home": "Visalia Rawhide",
    "away": "Fresno Grizzlies",
    "homeId": 516,
    "awayId": 259,
    "venue": "Valley Strong Ballpark",
    "city": "Visalia",
    "state": "California",
    "lat": 36.3320197,
    "lon": -119.3053325,
    "status": "Scheduled",
    "timeTBD": false,
    "ticketUrl": "https://www.ticketreturn.com/prod2new/BuyNew.asp?EventID=355435"
  },
  {
    "id": 824979,
    "date": "2026-07-19T02:05:00Z",
    "sportId": 1,
    "league": "MLB",
    "home": "Athletics",
    "away": "Washington Nationals",
    "homeId": 133,
    "awayId": 120,
    "venue": "Sutter Health Park",
    "city": "Sacramento",
    "state": "California",
    "lat": 38.57994,
    "lon": -121.51246,
    "status": "Scheduled",
    "timeTBD": false,
    "ticketUrl": "https://mlb.tickets.com/?agency=MLB_MPV&orgId=57649&pid=9647665"
  },
  {
    "id": 819131,
    "date": "2026-07-19T02:05:00Z",
    "sportId": 13,
    "league": "High-A",
    "home": "Tri-City Dust Devils",
    "away": "Vancouver Canadians",
    "homeId": 460,
    "awayId": 435,
    "venue": "Gesa Stadium",
    "city": "Pasco",
    "state": "Washington",
    "lat": 46.27032,
    "lon": -119.17079,
    "status": "Scheduled",
    "timeTBD": false,
    "ticketUrl": "https://mlb.tickets.com/?orgId=58369&agency=MILB_MPV&eventId=4816"
  },
  {
    "id": 820978,
    "date": "2026-07-19T02:05:00Z",
    "sportId": 14,
    "league": "Single-A",
    "home": "Stockton Ports",
    "away": "San Jose Giants",
    "homeId": 524,
    "awayId": 476,
    "venue": "Banner Island Ballpark",
    "city": "Stockton",
    "state": "California",
    "lat": 37.954863,
    "lon": -121.297357,
    "status": "Scheduled",
    "timeTBD": false,
    "ticketUrl": "https://mlb.tickets.com/?orgId=56609&agency=MILB_MPV&eventId=18489#"
  },
  {
    "id": 824008,
    "date": "2026-07-19T02:07:00Z",
    "sportId": 1,
    "league": "MLB",
    "home": "Los Angeles Angels",
    "away": "Detroit Tigers",
    "homeId": 108,
    "awayId": 116,
    "venue": "Angel Stadium",
    "city": "Anaheim",
    "state": "California",
    "lat": 33.80019044,
    "lon": -117.8823996,
    "status": "Scheduled",
    "timeTBD": false,
    "ticketUrl": "https://www.mlb.com/app/ballpark/angels/tickets/single-game-tickets/home-game-48/public"
  },
  {
    "id": 820654,
    "date": "2026-07-19T16:00:00Z",
    "sportId": 14,
    "league": "Single-A",
    "home": "Dunedin Blue Jays",
    "away": "Clearwater Threshers",
    "homeId": 424,
    "awayId": 566,
    "venue": "TD Ballpark",
    "city": "Dunedin",
    "state": "Florida",
    "lat": 27.9745812,
    "lon": -82.7913301,
    "status": "Scheduled",
    "timeTBD": false,
    "ticketUrl": "https://am.ticketmaster.com/tbjrcminorleague/buy/ism/U0QwNzE5MjY="
  },
  {
    "id": 820253,
    "date": "2026-07-19T16:00:00Z",
    "sportId": 14,
    "league": "Single-A",
    "home": "Tampa Tarpons",
    "away": "Bradenton Marauders",
    "homeId": 587,
    "awayId": 3390,
    "venue": "George M. Steinbrenner Field",
    "city": "Tampa",
    "state": "Florida",
    "lat": 27.97997,
    "lon": -82.50702,
    "status": "Scheduled",
    "timeTBD": false,
    "ticketUrl": "https://www.ticketmaster.com/event/0D0064752506AE05"
  },
  {
    "id": 820584,
    "date": "2026-07-19T16:05:00Z",
    "sportId": 14,
    "league": "Single-A",
    "home": "Fort Myers Mighty Mussels",
    "away": "Lakeland Flying Tigers",
    "homeId": 509,
    "awayId": 570,
    "venue": "Lee Health Sports Complex",
    "city": "Fort Myers",
    "state": "Florida",
    "lat": 26.537803,
    "lon": -81.841973,
    "status": "Scheduled",
    "timeTBD": false,
    "ticketUrl": "https://mlb.tickets.com/?orgId=55029&agency=MILB_MPV&eventId=65066"
  },
  {
    "id": 822786,
    "date": "2026-07-19T16:15:00Z",
    "sportId": 1,
    "league": "MLB",
    "home": "Toronto Blue Jays",
    "away": "Chicago White Sox",
    "homeId": 141,
    "awayId": 145,
    "venue": "Rogers Centre",
    "city": "Toronto",
    "state": "Ontario",
    "lat": 43.64155,
    "lon": -79.38915,
    "status": "Scheduled",
    "timeTBD": false,
    "ticketUrl": "https://www.ticketmaster.ca/event/1000639186123CD8?artistid=806032&brand=bluejays2&landing=n"
  },
  {
    "id": 820386,
    "date": "2026-07-19T16:30:00Z",
    "sportId": 14,
    "league": "Single-A",
    "home": "Palm Beach Cardinals",
    "away": "St. Lucie Mets",
    "homeId": 279,
    "awayId": 507,
    "venue": "Roger Dean Chevrolet Stadium",
    "city": "Jupiter",
    "state": "Florida",
    "lat": 26.890957,
    "lon": -80.116365,
    "status": "Scheduled",
    "timeTBD": false,
    "ticketUrl": "https://mlb.tickets.com/?agency=JUPV_PL_MPV&orgid=57091&pid=9680160"
  },
  {
    "id": 818863,
    "date": "2026-07-19T17:00:00Z",
    "sportId": 12,
    "league": "Double-A",
    "home": "Binghamton Rumble Ponies",
    "away": "Akron RubberDucks",
    "homeId": 505,
    "awayId": 402,
    "venue": "Mirabito Stadium",
    "city": "Binghamton",
    "state": "New York",
    "lat": 42.1031199,
    "lon": -75.90379,
    "status": "Scheduled",
    "timeTBD": false,
    "ticketUrl": "https://mlb.tickets.com/?orgId=57789&agency=MILB_MPV&eventId=3508"
  },
  {
    "id": 818662,
    "date": "2026-07-19T17:00:00Z",
    "sportId": 12,
    "league": "Double-A",
    "home": "Harrisburg Senators",
    "away": "New Hampshire Fisher Cats",
    "homeId": 547,
    "awayId": 463,
    "venue": "FNB Field",
    "city": "Harrisburg",
    "state": "Pennsylvania",
    "lat": 40.2568294,
    "lon": -76.8896522,
    "status": "Scheduled",
    "timeTBD": false,
    "ticketUrl": "https://mlb.tickets.com/?orgId=58589&agency=MILB_MPV&eventId=5370#"
  },
  {
    "id": 818450,
    "date": "2026-07-19T17:00:00Z",
    "sportId": 12,
    "league": "Double-A",
    "home": "Portland Sea Dogs",
    "away": "Somerset Patriots",
    "homeId": 546,
    "awayId": 1956,
    "venue": "Delta Dental Park",
    "city": "Portland",
    "state": "Maine",
    "lat": 43.6562399,
    "lon": -70.27873,
    "status": "Scheduled",
    "timeTBD": false,
    "ticketUrl": "https://mlb.tickets.com/?agency=MILB_MPV&orgId=56873&eventId=14663"
  },
  {
    "id": 818046,
    "date": "2026-07-19T17:00:00Z",
    "sportId": 12,
    "league": "Double-A",
    "home": "Chattanooga Lookouts",
    "away": "Columbus Clingstones",
    "homeId": 498,
    "awayId": 6325,
    "venue": "Erlanger Park",
    "city": "Chattanooga",
    "state": "Tennessee",
    "lat": 35.02602956034051,
    "lon": -85.32085229852302,
    "status": "Scheduled",
    "timeTBD": false,
    "ticketUrl": "https://mlb.tickets.com/?orgId=57129&agency=MILB_MPV&eventId=61293"
  },
  {
    "id": 819860,
    "date": "2026-07-19T17:00:00Z",
    "sportId": 13,
    "league": "High-A",
    "home": "Lake County Captains",
    "away": "Dayton Dragons",
    "homeId": 437,
    "awayId": 459,
    "venue": "Classic Auto Group Park",
    "city": "Eastlake",
    "state": "Ohio",
    "lat": 41.6424351,
    "lon": -81.4367781,
    "status": "Scheduled",
    "timeTBD": false,
    "ticketUrl": "https://mlb.tickets.com/?orgId=57929&agency=MILB_MPV&eventId=2072"
  },
  {
    "id": 821881,
    "date": "2026-07-19T17:00:00Z",
    "sportId": 13,
    "league": "High-A",
    "home": "Rome Emperors",
    "away": "Asheville Tourists",
    "homeId": 432,
    "awayId": 573,
    "venue": "AdventHealth Stadium",
    "city": "Rome",
    "state": "Georgia",
    "lat": 34.285832,
    "lon": -85.167211,
    "status": "Scheduled",
    "timeTBD": false,
    "ticketUrl": "https://www.ticketmaster.com/event/0E0064549D25A8DF"
  },
  {
    "id": 816783,
    "date": "2026-07-19T17:05:00Z",
    "sportId": 11,
    "league": "Triple-A",
    "home": "Columbus Clippers",
    "away": "Indianapolis Indians",
    "homeId": 445,
    "awayId": 484,
    "venue": "Huntington Park",
    "city": "Columbus",
    "state": "Ohio",
    "lat": 39.96868,
    "lon": -83.01102,
    "status": "Scheduled",
    "timeTBD": false,
    "ticketUrl": "https://www.ticketmaster.com/event/05006374AB7D9910"
  },
  {
    "id": 815652,
    "date": "2026-07-19T17:05:00Z",
    "sportId": 11,
    "league": "Triple-A",
    "home": "Syracuse Mets",
    "away": "Buffalo Bisons",
    "homeId": 552,
    "awayId": 422,
    "venue": "NBT Bank Stadium",
    "city": "Syracuse",
    "state": "New York",
    "lat": 43.079531,
    "lon": -76.165419,
    "status": "Scheduled",
    "timeTBD": false,
    "ticketUrl": "https://mlb.tickets.com/?orgId=57969&agency=MILB_MPV&eventId=3206"
  },
  {
    "id": 818796,
    "date": "2026-07-19T17:05:00Z",
    "sportId": 12,
    "league": "Double-A",
    "home": "Chesapeake Baysox",
    "away": "Hartford Yard Goats",
    "homeId": 418,
    "awayId": 538,
    "venue": "Prince George's Stadium",
    "city": "Bowie",
    "state": "Maryland",
    "lat": 38.946114,
    "lon": -76.709334,
    "status": "Scheduled",
    "timeTBD": false,
    "ticketUrl": "https://www.ticketreturn.com/prod2/Buy.asp?EventID=358273"
  },
  {
    "id": 821818,
    "date": "2026-07-19T17:05:00Z",
    "sportId": 13,
    "league": "High-A",
    "home": "Wilmington Blue Rocks",
    "away": "Jersey Shore BlueClaws",
    "homeId": 426,
    "awayId": 427,
    "venue": "Frawley Stadium",
    "city": "Wilmington",
    "state": "Delaware",
    "lat": 39.731809,
    "lon": -75.564174,
    "status": "Scheduled",
    "timeTBD": false,
    "ticketUrl": "https://lf1.glitnirticketing.com/lfticket/web/stadiumg.php?status_id=2&event_id=248"
  },
  {
    "id": 819923,
    "date": "2026-07-19T17:05:00Z",
    "sportId": 13,
    "league": "High-A",
    "home": "Great Lakes Loons",
    "away": "West Michigan Whitecaps",
    "homeId": 456,
    "awayId": 582,
    "venue": "Dow Diamond",
    "city": "Midland",
    "state": "Michigan",
    "lat": 43.6089355,
    "lon": -84.2397878,
    "status": "Scheduled",
    "timeTBD": false,
    "ticketUrl": "https://mlb.tickets.com/?agency=MILB_MPV&orgId=54391&eventId=60982"
  },
  {
    "id": 819792,
    "date": "2026-07-19T17:05:00Z",
    "sportId": 13,
    "league": "High-A",
    "home": "Lansing Lugnuts",
    "away": "Fort Wayne TinCaps",
    "homeId": 499,
    "awayId": 584,
    "venue": "Jackson Field",
    "city": "Lansing",
    "state": "Michigan",
    "lat": 42.73465,
    "lon": -84.5455999,
    "status": "Scheduled",
    "timeTBD": false,
    "ticketUrl": "https://mlb.tickets.com/?agency=MILB_MPV&orgid=57009&eventId=15249"
  },
  {
    "id": 820719,
    "date": "2026-07-19T17:05:00Z",
    "sportId": 14,
    "league": "Single-A",
    "home": "Daytona Tortugas",
    "away": "Jupiter Hammerheads",
    "homeId": 450,
    "awayId": 479,
    "venue": "Jackie Robinson Ballpark",
    "city": "Daytona Beach",
    "state": "Florida",
    "lat": 29.20922,
    "lon": -81.01596,
    "status": "Scheduled",
    "timeTBD": false,
    "ticketUrl": "https://mlb.tickets.com/?agency=MILB_MPV&orgid=57209&pid=9599082"
  },
  {
    "id": 827045,
    "date": "2026-07-19T17:30:00Z",
    "sportId": 14,
    "league": "Single-A",
    "home": "Kannapolis Cannon Ballers",
    "away": "Myrtle Beach Pelicans",
    "homeId": 487,
    "awayId": 521,
    "venue": "Atrium Health Ballpark",
    "city": "Kannapolis",
    "state": "North Carolina",
    "lat": 35.4968555,
    "lon": -80.6282677,
    "status": "Scheduled",
    "timeTBD": false,
    "ticketUrl": "https://www.ticketreturn.com/prod2/Buy.asp?EventID=355605"
  },
  {
    "id": 824739,
    "date": "2026-07-19T17:35:00Z",
    "sportId": 1,
    "league": "MLB",
    "home": "Boston Red Sox",
    "away": "Tampa Bay Rays",
    "homeId": 111,
    "awayId": 139,
    "venue": "Fenway Park",
    "city": "Boston",
    "state": "Massachusetts",
    "lat": 42.346456,
    "lon": -71.097441,
    "status": "Scheduled",
    "timeTBD": false,
    "ticketUrl": "https://mlb.tickets.com/?agency=MLB_MPV&orgid=23&pid=9681689"
  },
  {
    "id": 823439,
    "date": "2026-07-19T17:35:00Z",
    "sportId": 1,
    "league": "MLB",
    "home": "Philadelphia Phillies",
    "away": "New York Mets",
    "homeId": 143,
    "awayId": 121,
    "venue": "Citizens Bank Park",
    "city": "Philadelphia",
    "state": "Pennsylvania",
    "lat": 39.90539086,
    "lon": -75.16716957,
    "status": "Scheduled",
    "timeTBD": false,
    "ticketUrl": "http://mlb.tickets.com/?agency=MLB_MPV&orgid=21&pid=9643170"
  },
  {
    "id": 824897,
    "date": "2026-07-19T17:35:00Z",
    "sportId": 1,
    "league": "MLB",
    "home": "Atlanta Braves",
    "away": "Texas Rangers",
    "homeId": 144,
    "awayId": 140,
    "venue": "Truist Park",
    "city": "Atlanta",
    "state": "Georgia",
    "lat": 33.890672,
    "lon": -84.467641,
    "status": "Scheduled",
    "timeTBD": false,
    "ticketUrl": "https://www.ticketmaster.com/event/0E00634DCBC46E8F"
  },
  {
    "id": 815804,
    "date": "2026-07-19T17:35:00Z",
    "sportId": 11,
    "league": "Triple-A",
    "home": "Scranton/Wilkes-Barre RailRiders",
    "away": "Worcester Red Sox",
    "homeId": 531,
    "awayId": 533,
    "venue": "PNC Field",
    "city": "Moosic",
    "state": "Pennsylvania",
    "lat": 41.360672,
    "lon": -75.683676,
    "status": "Scheduled",
    "timeTBD": false,
    "ticketUrl": "https://www.ticketmaster.com/event/02006436E1A5DED9"
  },
  {
    "id": 827183,
    "date": "2026-07-19T17:35:00Z",
    "sportId": 14,
    "league": "Single-A",
    "home": "Fredericksburg Nationals",
    "away": "Hill City Howlers",
    "homeId": 436,
    "awayId": 481,
    "venue": "Virginia Credit Union Stadium",
    "city": "Fredericksburg",
    "state": "Virginia",
    "lat": 38.3181302,
    "lon": -77.5124029,
    "status": "Scheduled",
    "timeTBD": false,
    "ticketUrl": "https://mlb.tickets.com/?agency=MILB_MPV&orgid=58409&eventId=3813"
  },
  {
    "id": 824411,
    "date": "2026-07-19T17:40:00Z",
    "sportId": 1,
    "league": "MLB",
    "home": "Cleveland Guardians",
    "away": "Pittsburgh Pirates",
    "homeId": 114,
    "awayId": 134,
    "venue": "Progressive Field",
    "city": "Cleveland",
    "state": "Ohio",
    "lat": 41.495861,
    "lon": -81.685255,
    "status": "Scheduled",
    "timeTBD": false,
    "ticketUrl": "https://mlb.tickets.com/?agency=MLB_MPV&orgid=27&pid=9658551"
  },
  {
    "id": 822334,
    "date": "2026-07-19T18:00:00Z",
    "sportId": 13,
    "league": "High-A",
    "home": "Brooklyn Cyclones",
    "away": "Hudson Valley Renegades",
    "homeId": 453,
    "awayId": 537,
    "venue": "Maimonides Park",
    "city": "Brooklyn",
    "state": "New York",
    "lat": 40.57392,
    "lon": -73.98473,
    "status": "Scheduled",
    "timeTBD": false,
    "ticketUrl": "https://mlb.tickets.com/?orgid=58029&agency=MILB_MPV&eventId=4048"
  },
  {
    "id": 827116,
    "date": "2026-07-19T18:00:00Z",
    "sportId": 14,
    "league": "Single-A",
    "home": "Hickory Crawdads",
    "away": "Wilson Warbirds",
    "homeId": 448,
    "awayId": 249,
    "venue": "L.P. Frans Stadium",
    "city": "Hickory",
    "state": "North Carolina",
    "lat": 35.747289,
    "lon": -81.3778848,
    "status": "Scheduled",
    "timeTBD": false,
    "ticketUrl": "https://mlb.tickets.com/?agency=MILB_MPV&orgid=57071&eventid=15063"
  },
  {
    "id": 816182,
    "date": "2026-07-19T18:05:00Z",
    "sportId": 11,
    "league": "Triple-A",
    "home": "Memphis Redbirds",
    "away": "Iowa Cubs",
    "homeId": 235,
    "awayId": 451,
    "venue": "AutoZone Park",
    "city": "Memphis",
    "state": "Tennessee",
    "lat": 35.14297,
    "lon": -90.04924,
    "status": "Scheduled",
    "timeTBD": false,
    "ticketUrl": "https://mlb.tickets.com/?agency=MILB_MPV&orgId=56789&eventId=17633"
  },
  {
    "id": 819595,
    "date": "2026-07-19T18:05:00Z",
    "sportId": 13,
    "league": "High-A",
    "home": "South Bend Cubs",
    "away": "Peoria Chiefs",
    "homeId": 550,
    "awayId": 443,
    "venue": "Four Winds Field",
    "city": "South Bend",
    "state": "Indiana",
    "lat": 41.6704099,
    "lon": -86.25547,
    "status": "Scheduled",
    "timeTBD": false,
    "ticketUrl": "https://mlb.tickets.com/?agency=MILB_MPV&orgid=55571&pid=9586905"
  },
  {
    "id": 820122,
    "date": "2026-07-19T18:05:00Z",
    "sportId": 13,
    "league": "High-A",
    "home": "Cedar Rapids Kernels",
    "away": "Beloit Sky Carp",
    "homeId": 492,
    "awayId": 554,
    "venue": "Veterans Memorial Stadium",
    "city": "Cedar Rapids",
    "state": "Iowa",
    "lat": 41.96785,
    "lon": -91.68662,
    "status": "Scheduled",
    "timeTBD": false,
    "ticketUrl": "https://www.ticketreturn.com/prod2new/BuyNew.asp?EventID=358092#"
  },
  {
    "id": 822409,
    "date": "2026-07-19T18:05:00Z",
    "sportId": 13,
    "league": "High-A",
    "home": "Bowling Green Hot Rods",
    "away": "Winston-Salem Dash",
    "homeId": 2498,
    "awayId": 580,
    "venue": "Bowling Green Ballpark",
    "city": "Bowling Green",
    "state": "Kentucky",
    "lat": 36.9957207,
    "lon": -86.4411401,
    "status": "Scheduled",
    "timeTBD": false,
    "ticketUrl": "https://www.ticketreturn.com/prod2new//BuyClear.asp?EventID=354480&continue=buynew.asp"
  },
  {
    "id": 824168,
    "date": "2026-07-19T18:10:00Z",
    "sportId": 1,
    "league": "MLB",
    "home": "Houston Astros",
    "away": "Baltimore Orioles",
    "homeId": 117,
    "awayId": 110,
    "venue": "Daikin Park",
    "city": "Houston",
    "state": "Texas",
    "lat": 29.756967,
    "lon": -95.355509,
    "status": "Scheduled",
    "timeTBD": false,
    "ticketUrl": "https://mlb.tickets.com/?agency=MLB_MPV&orgid=18&pid=9652558"
  },
  {
    "id": 824086,
    "date": "2026-07-19T18:10:00Z",
    "sportId": 1,
    "league": "MLB",
    "home": "Kansas City Royals",
    "away": "San Diego Padres",
    "homeId": 118,
    "awayId": 135,
    "venue": "Kauffman Stadium",
    "city": "Kansas City",
    "state": "Missouri",
    "lat": 39.051567,
    "lon": -94.480483,
    "status": "Scheduled",
    "timeTBD": false,
    "ticketUrl": "https://mlb.tickets.com/?agency=MLB_MPV&orgid=11&pid=9609695"
  },
  {
    "id": 823764,
    "date": "2026-07-19T18:10:00Z",
    "sportId": 1,
    "league": "MLB",
    "home": "Milwaukee Brewers",
    "away": "Miami Marlins",
    "homeId": 158,
    "awayId": 146,
    "venue": "American Family Field",
    "city": "Milwaukee",
    "state": "Wisconsin",
    "lat": 43.02838,
    "lon": -87.97099,
    "status": "Scheduled",
    "timeTBD": false,
    "ticketUrl": "https://mlb.tickets.com/?agency=MLB_MPV&orgid=4&pid=9641482"
  },
  {
    "id": 819458,
    "date": "2026-07-19T18:10:00Z",
    "sportId": 13,
    "league": "High-A",
    "home": "Wisconsin Timber Rattlers",
    "away": "Quad Cities River Bandits",
    "homeId": 572,
    "awayId": 565,
    "venue": "Neuroscience Group Field",
    "city": "Appleton",
    "state": "Wisconsin",
    "lat": 44.282871,
    "lon": -88.469427,
    "status": "Scheduled",
    "timeTBD": false,
    "ticketUrl": "https://mlb.tickets.com/?agency=MILB_MPV&orgid=58269&mkt_code=WTRWEB&eventId=3125"
  },
  {
    "id": 824653,
    "date": "2026-07-19T18:20:00Z",
    "sportId": 1,
    "league": "MLB",
    "home": "Chicago Cubs",
    "away": "Minnesota Twins",
    "homeId": 112,
    "awayId": 142,
    "venue": "Wrigley Field",
    "city": "Chicago",
    "state": "Illinois",
    "lat": 41.948171,
    "lon": -87.655503,
    "status": "Scheduled",
    "timeTBD": false,
    "ticketUrl": "https://mlb.tickets.com/?orgid=5&agency=MLB_MPV&pid=9642661"
  },
  {
    "id": 817554,
    "date": "2026-07-19T18:35:00Z",
    "sportId": 12,
    "league": "Double-A",
    "home": "Arkansas Travelers",
    "away": "Wichita Wind Surge",
    "homeId": 574,
    "awayId": 3898,
    "venue": "Dickey-Stephens Park",
    "city": "North Little Rock",
    "state": "Arkansas",
    "lat": 34.75513,
    "lon": -92.2725899,
    "status": "Scheduled",
    "timeTBD": false,
    "ticketUrl": "https://mlb.tickets.com/?agency=MILB_MPV&orgid=58453&pid=9636900"
  },
  {
    "id": 818104,
    "date": "2026-07-19T19:05:00Z",
    "sportId": 12,
    "league": "Double-A",
    "home": "Birmingham Barons",
    "away": "Rocket City Trash Pandas",
    "homeId": 247,
    "awayId": 559,
    "venue": "Regions Field",
    "city": "Birmingham",
    "state": "Alabama",
    "lat": 33.5077928,
    "lon": -86.8120366,
    "status": "Scheduled",
    "timeTBD": false,
    "ticketUrl": "https://mlb.tickets.com/?agency=MILB_MPV&orgid=57391&eventId=15001"
  },
  {
    "id": 817275,
    "date": "2026-07-19T19:05:00Z",
    "sportId": 12,
    "league": "Double-A",
    "home": "Northwest Arkansas Naturals",
    "away": "Midland RockHounds",
    "homeId": 1350,
    "awayId": 237,
    "venue": "Arvest Ballpark",
    "city": "Springdale",
    "state": "Arkansas",
    "lat": 36.15968,
    "lon": -94.194624,
    "status": "Scheduled",
    "timeTBD": false,
    "ticketUrl": "https://mlb.tickets.com/?agency=MILB_MPV&orgid=58331&pid=9620615"
  },
  {
    "id": 822149,
    "date": "2026-07-19T19:05:00Z",
    "sportId": 13,
    "league": "High-A",
    "home": "Greenville Drive",
    "away": "Frederick Keys",
    "homeId": 428,
    "awayId": 493,
    "venue": "Fluor Field at the West End",
    "city": "Greenville",
    "state": "South Carolina",
    "lat": 34.84297,
    "lon": -82.40893,
    "status": "Scheduled",
    "timeTBD": false,
    "ticketUrl": "https://gd1.glitnirticketing.com/gdticket/web/stadiumg.php?status_id=2&event_id=44"
  },
  {
    "id": 815725,
    "date": "2026-07-19T19:07:00Z",
    "sportId": 11,
    "league": "Triple-A",
    "home": "St. Paul Saints",
    "away": "Louisville Bats",
    "homeId": 1960,
    "awayId": 416,
    "venue": "CHS Field",
    "city": "St. Paul",
    "state": "Minnesota",
    "lat": 44.95089651,
    "lon": -93.08457526,
    "status": "Scheduled",
    "timeTBD": false,
    "ticketUrl": "https://mlb.tickets.com/?orgId=57749&agency=MILB_MPV&eventId=4944"
  },
  {
    "id": 824330,
    "date": "2026-07-19T19:10:00Z",
    "sportId": 1,
    "league": "MLB",
    "home": "Colorado Rockies",
    "away": "Cincinnati Reds",
    "homeId": 115,
    "awayId": 113,
    "venue": "Coors Field",
    "city": "Denver",
    "state": "Colorado",
    "lat": 39.756042,
    "lon": -104.994136,
    "status": "Scheduled",
    "timeTBD": false,
    "ticketUrl": "https://www.ticketmaster.com/event/1E00636AD37390B8"
  },
  {
    "id": 824978,
    "date": "2026-07-19T20:05:00Z",
    "sportId": 1,
    "league": "MLB",
    "home": "Athletics",
    "away": "Washington Nationals",
    "homeId": 133,
    "awayId": 120,
    "venue": "Sutter Health Park",
    "city": "Sacramento",
    "state": "California",
    "lat": 38.57994,
    "lon": -121.51246,
    "status": "Scheduled",
    "timeTBD": false,
    "ticketUrl": "https://mlb.tickets.com/?agency=MLB_MPV&orgId=57649&pid=9647666"
  },
  {
    "id": 815582,
    "date": "2026-07-19T20:05:00Z",
    "sportId": 11,
    "league": "Triple-A",
    "home": "Toledo Mud Hens",
    "away": "Gwinnett Stripers",
    "homeId": 512,
    "awayId": 431,
    "venue": "Fifth Third Field",
    "city": "Toledo",
    "state": "Ohio",
    "lat": 41.64767,
    "lon": -83.53838,
    "status": "Scheduled",
    "timeTBD": false,
    "ticketUrl": "https://mlb.tickets.com/?orgid=54891&agency=MILB_MPV&eventid=65181"
  },
  {
    "id": 819204,
    "date": "2026-07-19T20:05:00Z",
    "sportId": 13,
    "league": "High-A",
    "home": "Spokane Indians",
    "away": "Everett AquaSox",
    "homeId": 486,
    "awayId": 403,
    "venue": "Avista Stadium",
    "city": "Spokane",
    "state": "Washington",
    "lat": 47.661351,
    "lon": -117.344426,
    "status": "Scheduled",
    "timeTBD": false,
    "ticketUrl": "https://mlb.tickets.com/?orgId=56051&agency=MILB_MPV&eventId=19269"
  },
  {
    "id": 826853,
    "date": "2026-07-19T20:05:00Z",
    "sportId": 14,
    "league": "Single-A",
    "home": "Salem RidgeYaks",
    "away": "Delmarva Shorebirds",
    "homeId": 414,
    "awayId": 548,
    "venue": "Carilion Clinic Field",
    "city": "Salem",
    "state": "Virginia",
    "lat": 37.2861162,
    "lon": -80.037161,
    "status": "Scheduled",
    "timeTBD": false,
    "ticketUrl": "https://mlb.tickets.com/?orgId=57031&agency=MILB_MPV&eventId=14740"
  },
  {
    "id": 824007,
    "date": "2026-07-19T20:07:00Z",
    "sportId": 1,
    "league": "MLB",
    "home": "Los Angeles Angels",
    "away": "Detroit Tigers",
    "homeId": 108,
    "awayId": 116,
    "venue": "Angel Stadium",
    "city": "Anaheim",
    "state": "California",
    "lat": 33.80019044,
    "lon": -117.8823996,
    "status": "Scheduled",
    "timeTBD": false,
    "ticketUrl": "https://www.mlb.com/app/ballpark/angels/tickets/single-game-tickets/home-game-49/public"
  },
  {
    "id": 823113,
    "date": "2026-07-19T20:10:00Z",
    "sportId": 1,
    "league": "MLB",
    "home": "Seattle Mariners",
    "away": "San Francisco Giants",
    "homeId": 136,
    "awayId": 137,
    "venue": "T-Mobile Park",
    "city": "Seattle",
    "state": "Washington",
    "lat": 47.591333,
    "lon": -122.33251,
    "status": "Scheduled",
    "timeTBD": false,
    "ticketUrl": "https://www.ticketmaster.com/seattle-mariners-vs-san-francisco-giants-seattle-washington-07-19-2026/event/0F00635BEEA17301"
  },
  {
    "id": 825057,
    "date": "2026-07-19T20:10:00Z",
    "sportId": 1,
    "league": "MLB",
    "home": "Arizona Diamondbacks",
    "away": "St. Louis Cardinals",
    "homeId": 109,
    "awayId": 138,
    "venue": "Chase Field",
    "city": "Phoenix",
    "state": "Arizona",
    "lat": 33.445302,
    "lon": -112.066687,
    "status": "Scheduled",
    "timeTBD": false,
    "ticketUrl": "https://www.ticketmaster.com/event/1900642CC2E25528"
  },
  {
    "id": 817830,
    "date": "2026-07-19T20:33:00Z",
    "sportId": 12,
    "league": "Double-A",
    "home": "Montgomery Biscuits",
    "away": "Knoxville Smokies",
    "homeId": 421,
    "awayId": 553,
    "venue": "DABOS Park",
    "city": "Montgomery",
    "state": "Alabama",
    "lat": 32.382298,
    "lon": -86.310592,
    "status": "Scheduled",
    "timeTBD": false,
    "ticketUrl": "https://www.ticketreturn.com/prod2new/BuyNew.asp?EventID=356471"
  },
  {
    "id": 814754,
    "date": "2026-07-19T20:35:00Z",
    "sportId": 11,
    "league": "Triple-A",
    "home": "Tacoma Rainiers",
    "away": "Oklahoma City Comets",
    "homeId": 529,
    "awayId": 238,
    "venue": "Cheney Stadium",
    "city": "Tacoma",
    "state": "Washington",
    "lat": 47.237981,
    "lon": -122.497643,
    "status": "Scheduled",
    "timeTBD": false,
    "ticketUrl": "https://www.ticketmaster.com/event/0F00643C0180B476"
  },
  {
    "id": 822073,
    "date": "2026-07-19T20:35:00Z",
    "sportId": 13,
    "league": "High-A",
    "home": "Hub City Spartanburgers",
    "away": "Greensboro Grasshoppers",
    "homeId": 6324,
    "awayId": 477,
    "venue": "Fifth Third Park",
    "city": "Spartanburg",
    "state": "South Carolina",
    "lat": 34.9449402,
    "lon": -81.9359415,
    "status": "Scheduled",
    "timeTBD": false,
    "ticketUrl": "https://mlb.tickets.com/?orgid=57729&agency=MILB_MPV&eventId=14890"
  },
  {
    "id": 816702,
    "date": "2026-07-19T21:05:00Z",
    "sportId": 11,
    "league": "Triple-A",
    "home": "Durham Bulls",
    "away": "Charlotte Knights",
    "homeId": 234,
    "awayId": 494,
    "venue": "Durham Bulls Athletic Park",
    "city": "Durham",
    "state": "North Carolina",
    "lat": 35.99158,
    "lon": -78.90401,
    "status": "Scheduled",
    "timeTBD": false,
    "ticketUrl": "https://www.ticketmaster.com/event/2D006443AC9DA0FA"
  },
  {
    "id": 815875,
    "date": "2026-07-19T21:05:00Z",
    "sportId": 11,
    "league": "Triple-A",
    "home": "Rochester Red Wings",
    "away": "Jacksonville Jumbo Shrimp",
    "homeId": 534,
    "awayId": 564,
    "venue": "ESL Ballpark",
    "city": "Rochester",
    "state": "New York",
    "lat": 43.158301,
    "lon": -77.619748,
    "status": "Scheduled",
    "timeTBD": false,
    "ticketUrl": "https://www.ticketreturn.com/prod2new/BuyNew.asp?EventID=354344"
  },
  {
    "id": 818317,
    "date": "2026-07-19T21:05:00Z",
    "sportId": 12,
    "league": "Double-A",
    "home": "Richmond Flying Squirrels",
    "away": "Erie SeaWolves",
    "homeId": 3410,
    "awayId": 106,
    "venue": "CarMax Park",
    "city": "Richmond",
    "state": "Virginia",
    "lat": null,
    "lon": null,
    "status": "Scheduled",
    "timeTBD": false,
    "ticketUrl": "https://mlb.tickets.com/?agency=MILB_MPV&&orgid=53889&eventId=62250"
  },