[
  {
    "id": 824829,
    "date": "2026-06-08T22:35:00Z",
    "sportId": 1,
    "league": "MLB",
    "home": "Baltimore Orioles",
    "away": "Seattle Mariners",
    "homeId": 110,
    "awayId": 136,
    "venue": "Oriole Park at Camden Yards",
    "city": "Baltimore",
    "state": "Maryland",
    "lat": 39.283787,
    "lon": -76.621689,
    "status": "Scheduled",
    "timeTBD": false,
    "ticketUrl": "https://mlb.tickets.com/?agency=MLB_MPV&orgid=56069&pid=9632204"
  },
  {
    "id": 822972,
    "date": "2026-06-08T22:40:00Z",
    "sportId": 1,
    "league": "MLB",
    "home": "Tampa Bay Rays",
    "away": "Boston Red Sox",
    "homeId": 139,
    "awayId": 111,
    "venue": "Tropicana Field",
    "city": "St. Petersburg",
    "state": "Florida",
    "lat": 27.767778,
    "lon": -82.6525,
    "status": "Scheduled",
    "timeTBD": false,
    "ticketUrl": "https://mlb.tickets.com/?orgid=25&agency=MLB_MPV&pid=9628342"
  },
  {
    "id": 824427,
    "date": "2026-06-08T22:40:00Z",
    "sportId": 1,
    "league": "MLB",
    "home": "Cleveland Guardians",
    "away": "New York Yankees",
    "homeId": 114,
    "awayId": 147,
    "venue": "Progressive Field",
    "city": "Cleveland",
    "state": "Ohio",
    "lat": 41.495861,
    "lon": -81.685255,
    "status": "Scheduled",
    "timeTBD": false,
    "ticketUrl": "https://mlb.tickets.com/?agency=MLB_MPV&orgid=27&pid=9658533"
  },
  {
    "id": 822806,
    "date": "2026-06-08T23:07:00Z",
    "sportId": 1,
    "league": "MLB",
    "home": "Toronto Blue Jays",
    "away": "Philadelphia Phillies",
    "homeId": 141,
    "awayId": 143,
    "venue": "Rogers Centre",
    "city": "Toronto",
    "state": "Ontario",
    "lat": 43.64155,
    "lon": -79.38915,
    "status": "Scheduled",
    "timeTBD": false,
    "ticketUrl": "https://www.ticketmaster.ca/event/1000639185DF3C79?artistid=806032&brand=bluejays2&landing=n"
  },
  {
    "id": 824025,
    "date": "2026-06-09T01:38:00Z",
    "sportId": 1,
    "league": "MLB",
    "home": "Los Angeles Angels",
    "away": "Houston Astros",
    "homeId": 108,
    "awayId": 117,
    "venue": "Angel Stadium",
    "city": "Anaheim",
    "state": "California",
    "lat": 33.80019044,
    "lon": -117.8823996,
    "status": "Scheduled",
    "timeTBD": false,
    "ticketUrl": "https://www.mlb.com/app/ballpark/angels/tickets/single-game-tickets/home-game-32/public"
  },
  {
    "id": 823289,
    "date": "2026-06-09T01:40:00Z",
    "sportId": 1,
    "league": "MLB",
    "home": "San Diego Padres",
    "away": "Cincinnati Reds",
    "homeId": 135,
    "awayId": 113,
    "venue": "Petco Park",
    "city": "San Diego",
    "state": "California",
    "lat": 32.707861,
    "lon": -117.157278,
    "status": "Scheduled",
    "timeTBD": false,
    "ticketUrl": "https://mlb.tickets.com/?orgid=58251&agency=MLB_MPV&pid=9657702"
  },
  {
    "id": 823218,
    "date": "2026-06-09T01:45:00Z",
    "sportId": 1,
    "league": "MLB",
    "home": "San Francisco Giants",
    "away": "Washington Nationals",
    "homeId": 137,
    "awayId": 120,
    "venue": "Oracle Park",
    "city": "San Francisco",
    "state": "California",
    "lat": 37.778383,
    "lon": -122.389448,
    "status": "Scheduled",
    "timeTBD": false,
    "ticketUrl": "https://mlb.tickets.com/?agency=MLB_MPV&orgid=2139&pid=9641677"
  },
  {
    "id": 824998,
    "date": "2026-06-09T02:05:00Z",
    "sportId": 1,
    "league": "MLB",
    "home": "Athletics",
    "away": "Milwaukee Brewers",
    "homeId": 133,
    "awayId": 158,
    "venue": "Las Vegas Ballpark",
    "city": "Las Vegas",
    "state": "Nevada",
    "lat": 36.152607,
    "lon": -115.329888,
    "status": "Scheduled",
    "timeTBD": false,
    "ticketUrl": "https://mlb.tickets.com/?agency=MLB_MPV&orgId=57649&pid=9647645"
  },
  {
    "id": 814769,
    "date": "2026-06-09T18:35:00Z",
    "sportId": 11,
    "league": "Triple-A",
    "home": "Tacoma Rainiers",
    "away": "Albuquerque Isotopes",
    "homeId": 529,
    "awayId": 342,
    "venue": "Cheney Stadium",
    "city": "Tacoma",
    "state": "Washington",
    "lat": 47.237981,
    "lon": -122.497643,
    "status": "Scheduled",
    "timeTBD": false,
    "ticketUrl": "https://www.ticketmaster.com/event/0F00643C011FB3EC"
  },
  {
    "id": 816867,
    "date": "2026-06-09T22:05:00Z",
    "sportId": 11,
    "league": "Triple-A",
    "home": "Charlotte Knights",
    "away": "Oklahoma City Comets",
    "homeId": 494,
    "awayId": 238,
    "venue": "Truist Field",
    "city": "Charlotte",
    "state": "North Carolina",
    "lat": 35.22781,
    "lon": -80.84823,
    "status": "Scheduled",
    "timeTBD": false,
    "ticketUrl": "https://mlb.tickets.com/?agency=MILB_MPV&orgid=57709&eventid=3422#"
  },
  {
    "id": 818743,
    "date": "2026-06-09T22:05:00Z",
    "sportId": 12,
    "league": "Double-A",
    "home": "Erie SeaWolves",
    "away": "Akron RubberDucks",
    "homeId": 106,
    "awayId": 402,
    "venue": "UPMC Park",
    "city": "Erie",
    "state": "Pennsylvania",
    "lat": 42.12706,
    "lon": -80.0803,
    "status": "Scheduled",
    "timeTBD": false,
    "ticketUrl": "https://mlb.tickets.com/?agency=MILB_MPV&orgid=57949&eventId=2211"
  },
  {
    "id": 819880,
    "date": "2026-06-09T22:05:00Z",
    "sportId": 13,
    "league": "High-A",
    "home": "Lake County Captains",
    "away": "West Michigan Whitecaps",
    "homeId": 437,
    "awayId": 582,
    "venue": "Classic Auto Group Park",
    "city": "Eastlake",
    "state": "Ohio",
    "lat": 41.6424351,
    "lon": -81.4367781,
    "status": "Scheduled",
    "timeTBD": false,
    "ticketUrl": "https://mlb.tickets.com/?orgId=57929&agency=MILB_MPV&eventId=2052"
  },
  {
    "id": 822096,
    "date": "2026-06-09T22:05:00Z",
    "sportId": 13,
    "league": "High-A",
    "home": "Hub City Spartanburgers",
    "away": "Asheville Tourists",
    "homeId": 6324,
    "awayId": 573,
    "venue": "Fifth Third Park",
    "city": "Spartanburg",
    "state": "South Carolina",
    "lat": 34.9449402,
    "lon": -81.9359415,
    "status": "Scheduled",
    "timeTBD": false,
    "ticketUrl": "https://mlb.tickets.com/?orgid=57729&agency=MILB_MPV&eventId=14870"
  },
  {
    "id": 818955,
    "date": "2026-06-09T22:30:00Z",
    "sportId": 12,
    "league": "Double-A",
    "home": "Altoona Curve",
    "away": "Chesapeake Baysox",
    "homeId": 452,
    "awayId": 418,
    "venue": "Peoples Natural Gas Field",
    "city": "Altoona",
    "state": "Pennsylvania",
    "lat": 40.473826,
    "lon": -78.394753,
    "status": "Scheduled",
    "timeTBD": false,
    "ticketUrl": "https://www.ticketmaster.com/event/02006437CA30E041"
  },
  {
    "id": 822223,
    "date": "2026-06-09T22:30:00Z",
    "sportId": 13,
    "league": "High-A",
    "home": "Greensboro Grasshoppers",
    "away": "Wilmington Blue Rocks",
    "homeId": 477,
    "awayId": 426,
    "venue": "First National Bank Field",
    "city": "Greensboro",
    "state": "North Carolina",
    "lat": 36.07667,
    "lon": -79.79487,
    "status": "Scheduled",
    "timeTBD": false,
    "ticketUrl": "https://www.ticketreturn.com/prod2new/Buy.asp?EventID=356652"
  },
  {
    "id": 826996,
    "date": "2026-06-09T22:30:00Z",
    "sportId": 14,
    "league": "Single-A",
    "home": "Hill City Howlers",
    "away": "Wilson Warbirds",
    "homeId": 481,
    "awayId": 249,
    "venue": "City Stadium",
    "city": "Lynchburg",
    "state": "Virginia",
    "lat": 37.3930099,
    "lon": -79.1661,
    "status": "Scheduled",
    "timeTBD": false,
    "ticketUrl": "https://www.ticketreturn.com/prod2/Buy.asp?EventID=354194"
  },
  {
    "id": 820407,
    "date": "2026-06-09T22:30:00Z",
    "sportId": 14,
    "league": "Single-A",
    "home": "Palm Beach Cardinals",
    "away": "St. Lucie Mets",
    "homeId": 279,
    "awayId": 507,
    "venue": "Roger Dean Chevrolet Stadium",
    "city": "Jupiter",
    "state": "Florida",
    "lat": 26.890957,
    "lon": -80.116365,
    "status": "Scheduled",
    "timeTBD": false,
    "ticketUrl": "https://mlb.tickets.com/?agency=JUPV_PL_MPV&orgid=57091&pid=9680146"
  },
  {
    "id": 820801,
    "date": "2026-06-09T22:30:00Z",
    "sportId": 14,
    "league": "Single-A",
    "home": "Clearwater Threshers",
    "away": "Lakeland Flying Tigers",
    "homeId": 566,
    "awayId": 570,
    "venue": "BayCare Ballpark",
    "city": "Clearwater",
    "state": "Florida",
    "lat": 27.97159,
    "lon": -82.731714,
    "status": "Scheduled",
    "timeTBD": false,
    "ticketUrl": "http://mlb.tickets.com/?agency=MILB_MPV&orgid=38329&pid=9688839"
  },
  {
    "id": 820865,
    "date": "2026-06-09T22:30:00Z",
    "sportId": 14,
    "league": "Single-A",
    "home": "Bradenton Marauders",
    "away": "Tampa Tarpons",
    "homeId": 3390,
    "awayId": 587,
    "venue": "LECOM Park",
    "city": "Bradenton",
    "state": "Florida",
    "lat": 27.48553,
    "lon": -82.57038,
    "status": "Scheduled",
    "timeTBD": false,
    "ticketUrl": "https://mlb.tickets.com/?agency=MILB_MPV&orgId=35027&pid=9668228"
  },
  {
    "id": 824830,
    "date": "2026-06-09T22:35:00Z",
    "sportId": 1,
    "league": "MLB",
    "home": "Baltimore Orioles",
    "away": "Seattle Mariners",
    "homeId": 110,
    "awayId": 136,
    "venue": "Oriole Park at Camden Yards",
    "city": "Baltimore",
    "state": "Maryland",
    "lat": 39.283787,
    "lon": -76.621689,
    "status": "Scheduled",
    "timeTBD": false,
    "ticketUrl": "https://mlb.tickets.com/?agency=MLB_MPV&orgid=56069&pid=9632205"
  },
  {
    "id": 816267,
    "date": "2026-06-09T22:35:00Z",
    "sportId": 11,
    "league": "Triple-A",
    "home": "Louisville Bats",
    "away": "Iowa Cubs",
    "homeId": 416,
    "awayId": 451,
    "venue": "Louisville Slugger Field",
    "city": "Louisville",
    "state": "Kentucky",
    "lat": 38.2557199,
    "lon": -85.74479,
    "status": "Scheduled",
    "timeTBD": false,
    "ticketUrl": "https://mlb.tickets.com/?agency=MILB_MPV&orgId=57629&eventId=16196"
  },
  {
    "id": 816954,
    "date": "2026-06-09T22:35:00Z",
    "sportId": 11,
    "league": "Triple-A",
    "home": "Buffalo Bisons",
    "away": "Syracuse Mets",
    "homeId": 422,
    "awayId": 552,
    "venue": "Sahlen Field",
    "city": "Buffalo",
    "state": "New York",
    "lat": 42.880772,
    "lon": -78.873955,
    "status": "Scheduled",
    "timeTBD": false,
    "ticketUrl": "https://mlb.tickets.com/?orgId=58249&agency=MILB_MPV&eventId=3114"
  },
  {
    "id": 816050,
    "date": "2026-06-09T22:35:00Z",
    "sportId": 11,
    "league": "Triple-A",
    "home": "Norfolk Tides",
    "away": "Memphis Redbirds",
    "homeId": 568,
    "awayId": 235,
    "venue": "Harbor Park",
    "city": "Norfolk",
    "state": "Virginia",
    "lat": 36.84265,
    "lon": -76.27803,
    "status": "Scheduled",
    "timeTBD": false,
    "ticketUrl": "https://www.ticketmaster.com/norfolk-tides-vs-memphis-redbirds-norfolk-virginia-06-09-2026/event/010062F0A882503C"
  },
  {
    "id": 818258,
    "date": "2026-06-09T22:35:00Z",
    "sportId": 12,
    "league": "Double-A",
    "home": "Somerset Patriots",
    "away": "Binghamton Rumble Ponies",
    "homeId": 1956,
    "awayId": 505,
    "venue": "TD Bank Ballpark",
    "city": "Bridgewater",
    "state": "New Jersey",
    "lat": 40.56081907,
    "lon": -74.55328462,
    "status": "Scheduled",
    "timeTBD": false,
    "ticketUrl": "https://so1.glitnirticketing.com/soticket/web/stadiumg.php?status_id=2&event_id=66"
  },
  {
    "id": 822026,
    "date": "2026-06-09T22:35:00Z",
    "sportId": 13,
    "league": "High-A",
    "home": "Hudson Valley Renegades",
    "away": "Jersey Shore BlueClaws",
    "homeId": 537,
    "awayId": 427,
    "venue": "Heritage Financial Park",
    "city": "Wappingers Falls",
    "state": "New York",
    "lat": 41.52638,
    "lon": -73.96109,
    "status": "Scheduled",
    "timeTBD": false,
    "ticketUrl": "https://www.ticketmaster.com/event/0000642CECB4B25E"
  },
  {
    "id": 820735,
    "date": "2026-06-09T22:35:00Z",
    "sportId": 14,
    "league": "Single-A",
    "home": "Daytona Tortugas",
    "away": "Jupiter Hammerheads",
    "homeId": 450,
    "awayId": 479,
    "venue": "Jackie Robinson Ballpark",
    "city": "Daytona Beach",
    "state": "Florida",
    "lat": 29.20922,
    "lon": -81.01596,
    "status": "Scheduled",
    "timeTBD": false,
    "ticketUrl": "https://mlb.tickets.com/?agency=MILB_MPV&orgid=57209&pid=9599062"
  },
  {
    "id": 826867,
    "date": "2026-06-09T22:35:00Z",
    "sportId": 14,
    "league": "Single-A",
    "home": "Salem RidgeYaks",
    "away": "Fayetteville Woodpeckers",
    "homeId": 414,
    "awayId": 3712,
    "venue": "Carilion Clinic Field",
    "city": "Salem",
    "state": "Virginia",
    "lat": 37.2861162,
    "lon": -80.037161,
    "status": "Scheduled",
    "timeTBD": false,
    "ticketUrl": "https://mlb.tickets.com/?orgId=57031&agency=MILB_MPV&eventId=14724"
  },
  {
    "id": 823374,
    "date": "2026-06-09T22:40:00Z",
    "sportId": 1,
    "league": "MLB",
    "home": "Pittsburgh Pirates",
    "away": "Los Angeles Dodgers",
    "homeId": 134,
    "awayId": 119,
    "venue": "PNC Park",
    "city": "Pittsburgh",
    "state": "Pennsylvania",
    "lat": 40.446904,
    "lon": -80.005753,
    "status": "Scheduled",
    "timeTBD": false,
    "ticketUrl": "https://mlb.tickets.com/?agency=MLB_MPV&orgid=7&pid=9643579"
  },
  {
    "id": 822969,
    "date": "2026-06-09T22:40:00Z",
    "sportId": 1,
    "league": "MLB",
    "home": "Tampa Bay Rays",
    "away": "Boston Red Sox",
    "homeId": 139,
    "awayId": 111,
    "venue": "Tropicana Field",
    "city": "St. Petersburg",
    "state": "Florida",
    "lat": 27.767778,
    "lon": -82.6525,
    "status": "Scheduled",
    "timeTBD": false,
    "ticketUrl": "https://mlb.tickets.com/?orgid=25&agency=MLB_MPV&pid=9628343"
  },
  {
    "id": 824267,
    "date": "2026-06-09T22:40:00Z",
    "sportId": 1,
    "league": "MLB",
    "home": "Detroit Tigers",
    "away": "Minnesota Twins",
    "homeId": 116,
    "awayId": 142,
    "venue": "Comerica Park",
    "city": "Detroit",
    "state": "Michigan",
    "lat": 42.3391151,
    "lon": -83.048695,
    "status": "Scheduled",
    "timeTBD": false,
    "ticketUrl": "https://mlb.tickets.com/?agency=MLB_MPV&orgid=28&pid=9685139"
  },
  {
    "id": 823858,
    "date": "2026-06-09T22:40:00Z",
    "sportId": 1,
    "league": "MLB",
    "home": "Miami Marlins",
    "away": "Arizona Diamondbacks",
    "homeId": 146,
    "awayId": 109,
    "venue": "loanDepot park",
    "city": "Miami",
    "state": "Florida",
    "lat": 25.77796236,
    "lon": -80.21951795,
    "status": "Scheduled",
    "timeTBD": false,
    "ticketUrl": "https://mlb.tickets.com/?orgid=20&agency=MLB_MPV&pid=9598916"
  },
  {
    "id": 824429,
    "date": "2026-06-09T22:40:00Z",
    "sportId": 1,
    "league": "MLB",
    "home": "Cleveland Guardians",
    "away": "New York Yankees",
    "homeId": 114,
    "awayId": 147,
    "venue": "Progressive Field",
    "city": "Cleveland",
    "state": "Ohio",
    "lat": 41.495861,
    "lon": -81.685255,
    "status": "Scheduled",
    "timeTBD": false,
    "ticketUrl": "https://mlb.tickets.com/?agency=MLB_MPV&orgid=27&pid=9658534"
  },
  {
    "id": 822357,
    "date": "2026-06-09T22:40:00Z",
    "sportId": 13,
    "league": "High-A",
    "home": "Brooklyn Cyclones",
    "away": "Frederick Keys",
    "homeId": 453,
    "awayId": 493,
    "venue": "Maimonides Park",
    "city": "Brooklyn",
    "state": "New York",
    "lat": 40.57392,
    "lon": -73.98473,
    "status": "Scheduled",
    "timeTBD": false,
    "ticketUrl": "https://mlb.tickets.com/?orgid=58029&agency=MILB_MPV&eventId=4028"
  },
  {
    "id": 815896,
    "date": "2026-06-09T22:45:00Z",
    "sportId": 11,
    "league": "Triple-A",
    "home": "Rochester Red Wings",
    "away": "Worcester Red Sox",
    "homeId": 534,
    "awayId": 533,
    "venue": "ESL Ballpark",
    "city": "Rochester",
    "state": "New York",
    "lat": 43.158301,
    "lon": -77.619748,
    "status": "Scheduled",
    "timeTBD": false,
    "ticketUrl": "https://www.ticketreturn.com/prod2new/BuyNew.asp?EventID=354324"
  },
  {
    "id": 822168,
    "date": "2026-06-09T22:45:00Z",
    "sportId": 13,
    "league": "High-A",
    "home": "Greenville Drive",
    "away": "Winston-Salem Dash",
    "homeId": 428,
    "awayId": 580,
    "venue": "Fluor Field at the West End",
    "city": "Greenville",
    "state": "South Carolina",
    "lat": 34.84297,
    "lon": -82.40893,
    "status": "Scheduled",
    "timeTBD": false,
    "ticketUrl": "https://gd1.glitnirticketing.com/gdticket/web/stadiumg.php?status_id=2&event_id=96"
  },
  {
    "id": 818402,
    "date": "2026-06-09T23:00:00Z",
    "sportId": 12,
    "league": "Double-A",
    "home": "Reading Fightin Phils",
    "away": "Portland Sea Dogs",
    "homeId": 522,
    "awayId": 546,
    "venue": "FirstEnergy Stadium",
    "city": "Reading",
    "state": "Pennsylvania",
    "lat": 40.365558,
    "lon": -75.933816,
    "status": "Scheduled",
    "timeTBD": false,
    "ticketUrl": "https://www.ticketreturn.com/prod2/Buy.asp?EventID=356150"
  },
  {
    "id": 818051,
    "date": "2026-06-09T23:00:00Z",
    "sportId": 12,
    "league": "Double-A",
    "home": "Chattanooga Lookouts",
    "away": "Rocket City Trash Pandas",
    "homeId": 498,
    "awayId": 559,
    "venue": "Erlanger Park",
    "city": "Chattanooga",
    "state": "Tennessee",
    "lat": 35.02602956034051,
    "lon": -85.32085229852302,
    "status": "Scheduled",
    "timeTBD": false,
    "ticketUrl": "https://mlb.tickets.com/?orgId=57129&agency=MILB_MPV&eventId=61065"
  },
  {
    "id": 827059,
    "date": "2026-06-09T23:00:00Z",
    "sportId": 14,
    "league": "Single-A",
    "home": "Kannapolis Cannon Ballers",
    "away": "Fredericksburg Nationals",
    "homeId": 487,
    "awayId": 436,
    "venue": "Atrium Health Ballpark",
    "city": "Kannapolis",
    "state": "North Carolina",
    "lat": 35.4968555,
    "lon": -80.6282677,
    "status": "Scheduled",
    "timeTBD": false,
    "ticketUrl": "https://www.ticketreturn.com/prod2/Buy.asp?EventID=355591"
  },
  {
    "id": 816574,
    "date": "2026-06-09T23:05:00Z",
    "sportId": 11,
    "league": "Triple-A",
    "home": "Indianapolis Indians",
    "away": "Columbus Clippers",
    "homeId": 484,
    "awayId": 445,
    "venue": "Victory Field",
    "city": "Indianapolis",
    "state": "Indiana",
    "lat": 39.7657354,
    "lon": -86.1682918,
    "status": "Scheduled",
    "timeTBD": false,
    "ticketUrl": "https://mlb.tickets.com/?orgId=54031&agency=MILB_MPV&eventId=63316#/event"
  },
  {
    "id": 816420,
    "date": "2026-06-09T23:05:00Z",
    "sportId": 11,
    "league": "Triple-A",
    "home": "Jacksonville Jumbo Shrimp",
    "away": "Gwinnett Stripers",
    "homeId": 564,
    "awayId": 431,
    "venue": "Vystar Ballpark",
    "city": "Jacksonville",
    "state": "Florida",
    "lat": 30.32533,
    "lon": -81.64256,
    "status": "Scheduled",
    "timeTBD": false,
    "ticketUrl": "https://mlb.tickets.com/?orgId=56689&agency=MILB_MPV&eventId=61731"
  },
  {
    "id": 815822,
    "date": "2026-06-09T23:05:00Z",
    "sportId": 11,
    "league": "Triple-A",
    "home": "Scranton/Wilkes-Barre RailRiders",
    "away": "Lehigh Valley IronPigs",
    "homeId": 531,
    "awayId": 1410,
    "venue": "PNC Field",
    "city": "Moosic",
    "state": "Pennsylvania",
    "lat": 41.360672,
    "lon": -75.683676,
    "status": "Scheduled",
    "timeTBD": false,
    "ticketUrl": "https://www.ticketmaster.com/event/02006436D80ED6DD"
  },
  {
    "id": 815601,
    "date": "2026-06-09T23:05:00Z",
    "sportId": 11,
    "league": "Triple-A",
    "home": "Toledo Mud Hens",
    "away": "St. Paul Saints",
    "homeId": 512,
    "awayId": 1960,
    "venue": "Fifth Third Field",
    "city": "Toledo",
    "state": "Ohio",
    "lat": 41.64767,
    "lon": -83.53838,
    "status": "Scheduled",
    "timeTBD": false,
    "ticketUrl": "https://mlb.tickets.com/?orgid=54891&agency=MILB_MPV&eventid=65113"
  },
  {
    "id": 818325,
    "date": "2026-06-09T23:05:00Z",
    "sportId": 12,
    "league": "Double-A",
    "home": "Richmond Flying Squirrels",
    "away": "Harrisburg Senators",
    "homeId": 3410,
    "awayId": 547,
    "venue": "CarMax Park",
    "city": "Richmond",
    "state": "Virginia",
    "lat": null,
    "lon": null,
    "status": "Scheduled",
    "timeTBD": false,
    "ticketUrl": "https://mlb.tickets.com/?agency=MILB_MPV&&orgid=53889&eventId=62157"
  },
  {
    "id": 817162,
    "date": "2026-06-09T23:05:00Z",
    "sportId": 12,
    "league": "Double-A",
    "home": "Springfield Cardinals",
    "away": "Amarillo Sod Poodles",
    "homeId": 440,
    "awayId": 5368,
    "venue": "Route 66 Stadium",
    "city": "Springfield",
    "state": "Missouri",
    "lat": 37.21078,
    "lon": -93.2797,
    "status": "Scheduled",
    "timeTBD": false,
    "ticketUrl": "https://mlb.tickets.com/?agency=MILB_MPV&orgid=57049&pid=9584856"
  },
  {
    "id": 819812,
    "date": "2026-06-09T23:05:00Z",
    "sportId": 13,
    "league": "High-A",
    "home": "Lansing Lugnuts",
    "away": "Cedar Rapids Kernels",
    "homeId": 499,
    "awayId": 492,
    "venue": "Jackson Field",
    "city": "Lansing",
    "state": "Michigan",
    "lat": 42.73465,
    "lon": -84.5455999,
    "status": "Scheduled",
    "timeTBD": false,
    "ticketUrl": "https://mlb.tickets.com/?agency=MILB_MPV&orgid=57009&eventId=15235"
  },
  {
    "id": 819610,
    "date": "2026-06-09T23:05:00Z",
    "sportId": 13,
    "league": "High-A",
    "home": "South Bend Cubs",
    "away": "Peoria Chiefs",
    "homeId": 550,
    "awayId": 443,
    "venue": "Four Winds Field",
    "city": "South Bend",
    "state": "Indiana",
    "lat": 41.6704099,
    "lon": -86.25547,
    "status": "Scheduled",
    "timeTBD": false,
    "ticketUrl": "https://mlb.tickets.com/?agency=MILB_MPV&orgid=55571&pid=9586888"
  },
  {
    "id": 820210,
    "date": "2026-06-09T23:05:00Z",
    "sportId": 13,
    "league": "High-A",
    "home": "Beloit Sky Carp",
    "away": "Quad Cities River Bandits",
    "homeId": 554,
    "awayId": 565,
    "venue": "ABC Supply Stadium",
    "city": "Beloit",
    "state": "Wisconsin",
    "lat": 42.496763,
    "lon": -89.0429539,
    "status": "Scheduled",
    "timeTBD": false,
    "ticketUrl": "https://mlb.tickets.com/?agency=MILB_MPV&orgid=55549&pid=9586596"
  },
  {
    "id": 820079,
    "date": "2026-06-09T23:05:00Z",
    "sportId": 13,
    "league": "High-A",
    "home": "Dayton Dragons",
    "away": "Fort Wayne TinCaps",
    "homeId": 459,
    "awayId": 584,
    "venue": "Day Air Ballpark",
    "city": "Dayton",
    "state": "Ohio",
    "lat": 39.764172,
    "lon": -84.185896,
    "status": "Scheduled",
    "timeTBD": false,
    "ticketUrl": "https://www.ticketmaster.com/event/16006444A47F6E9E"
  },
  {
    "id": 827471,
    "date": "2026-06-09T23:05:00Z",
    "sportId": 14,
    "league": "Single-A",
    "home": "Charleston RiverDogs",
    "away": "Hickory Crawdads",
    "homeId": 233,
    "awayId": 448,
    "venue": "Joseph P. Riley, Jr. Ballpark",
    "city": "Charleston",
    "state": "South Carolina",
    "lat": 32.790421,
    "lon": -79.961332,
    "status": "Scheduled",
    "timeTBD": false,
    "ticketUrl": "https://mlb.tickets.com/?orgId=55016&agency=MILB_MPV&eventId=61125"
  },
  {
    "id": 820600,
    "date": "2026-06-09T23:05:00Z",
    "sportId": 14,
    "league": "Single-A",
    "home": "Fort Myers Mighty Mussels",
    "away": "Dunedin Blue Jays",
    "homeId": 509,
    "awayId": 424,
    "venue": "Lee Health Sports Complex",
    "city": "Fort Myers",
    "state": "Florida",
    "lat": 26.537803,
    "lon": -81.841973,
    "status": "Scheduled",
    "timeTBD": false,
    "ticketUrl": "https://mlb.tickets.com/?orgId=55029&agency=MILB_MPV&eventId=65046"
  },
  {
    "id": 826936,
    "date": "2026-06-09T23:05:00Z",
    "sportId": 14,
    "league": "Single-A",
    "home": "Myrtle Beach Pelicans",
    "away": "Augusta GreenJackets",
    "homeId": 521,
    "awayId": 478,
    "venue": "Pelicans Ballpark",
    "city": "Myrtle Beach",
    "state": "South Carolina",
    "lat": 33.711404,
    "lon": -78.88444,
    "status": "Scheduled",
    "timeTBD": false,
    "ticketUrl": "https://mlb.tickets.com/?orgId=57329&agency=MILB_MPV&eventId=63082"
  },
  {
    "id": 827408,
    "date": "2026-06-09T23:05:00Z",
    "sportId": 14,
    "league": "Single-A",
    "home": "Columbia Fireflies",
    "away": "Delmarva Shorebirds",
    "homeId": 3705,
    "awayId": 548,
    "venue": "Segra Park",
    "city": "Columbia",
    "state": "South Carolina",
    "lat": 34.018317,
    "lon": -81.030958,
    "status": "Scheduled",
    "timeTBD": false,
    "ticketUrl": "https://mlb.tickets.com/?orgId=57151&agency=MILB_MPV&eventId=63421"
  },
  {
    "id": 817977,
    "date": "2026-06-09T23:06:00Z",
    "sportId": 12,
    "league": "Double-A",
    "home": "Columbus Clingstones",
    "away": "Pensacola Blue Wahoos",
    "homeId": 6325,
    "awayId": 4124,
    "venue": "Synovus Park",
    "city": "Columbus",
    "state": "Georgia",
    "lat": 32.4523727,
    "lon": -84.9939591,
    "status": "Scheduled",
    "timeTBD": false,
    "ticketUrl": "https://mlb.tickets.com/?agency=MILB_MPV&orgid=57769&eventid=5160"
  },
  {
    "id": 822805,
    "date": "2026-06-09T23:07:00Z",
    "sportId": 1,
    "league": "MLB",
    "home": "Toronto Blue Jays",
    "away": "Philadelphia Phillies",
    "homeId": 141,
    "awayId": 143,
    "venue": "Rogers Centre",
    "city": "Toronto",
    "state": "Ontario",
    "lat": 43.64155,
    "lon": -79.38915,
    "status": "Scheduled",
    "timeTBD": false,
    "ticketUrl": "https://www.ticketmaster.ca/event/1000639186073CC2?artistid=806032&brand=bluejays2&landing=n"
  },
  {
    "id": 823620,
    "date": "2026-06-09T23:10:00Z",
    "sportId": 1,
    "league": "MLB",
    "home": "New York Mets",
    "away": "St. Louis Cardinals",
    "homeId": 121,
    "awayId": 138,
    "venue": "Citi Field",
    "city": "Flushing",
    "state": "New York",
    "lat": 40.75753012,
    "lon": -73.84559155,
    "status": "Scheduled",
    "timeTBD": false,
    "ticketUrl": "http://mlb.tickets.com/?agency=MLB_MPV&orgid=38129&pid=9682377"
  },
  {
    "id": 818605,
    "date": "2026-06-09T23:10:00Z",
    "sportId": 12,
    "league": "Double-A",
    "home": "Hartford Yard Goats",
    "away": "New Hampshire Fisher Cats",
    "homeId": 538,
    "awayId": 463,
    "venue": "Dunkin' Park",
    "city": "Hartford",
    "state": "Connecticut",
    "lat": 41.77079,
    "lon": -72.6743078,
    "status": "Scheduled",
    "timeTBD": false,
    "ticketUrl": "https://mlb.tickets.com/?orgId=56009&agency=MILB_MPV&eventId=60564"
  },
  {
    "id": 817363,
    "date": "2026-06-09T23:30:00Z",
    "sportId": 12,
    "league": "Double-A",
    "home": "Midland RockHounds",
    "away": "Corpus Christi Hooks",
    "homeId": 237,
    "awayId": 482,
    "venue": "Momentum Bank Ballpark",
    "city": "Midland",
    "state": "Texas",
    "lat": 31.98835,
    "lon": -102.15482,
    "status": "Scheduled",
    "timeTBD": false,
    "ticketUrl": "https://mlb.tickets.com/?agency=MILB_MPV&orgId=56877&eventId=15598"
  },
  {
    "id": 816124,
    "date": "2026-06-09T23:35:00Z",
    "sportId": 11,
    "league": "Triple-A",
    "home": "Nashville Sounds",
    "away": "Durham Bulls",
    "homeId": 556,
    "awayId": 234,
    "venue": "First Horizon Park",
    "city": "Nashville",
    "state": "Tennessee",
    "lat": 36.173218,
    "lon": -86.785171,
    "status": "Scheduled",
    "timeTBD": false,
    "ticketUrl": "https://www.ticketmaster.com/event/1B00642C78D74C10?utm_source=Sounds&utm_medium=TLINK&utm_campaign=Sounds-TLINK"
  },
  {
    "id": 817848,
    "date": "2026-06-09T23:35:00Z",
    "sportId": 12,
    "league": "Double-A",
    "home": "Montgomery Biscuits",
    "away": "Knoxville Smokies",
    "homeId": 421,
    "awayId": 553,
    "venue": "DABOS Park",
    "city": "Montgomery",
    "state": "Alabama",
    "lat": 32.382298,
    "lon": -86.310592,
    "status": "Scheduled",
    "timeTBD": false,
    "ticketUrl": "https://www.ticketreturn.com/prod2new/BuyNew.asp?EventID=356461"
  },
  {
    "id": 817564,
    "date": "2026-06-09T23:35:00Z",
    "sportId": 12,
    "league": "Double-A",
    "home": "Arkansas Travelers",
    "away": "Northwest Arkansas Naturals",
    "homeId": 574,
    "awayId": 1350,
    "venue": "Dickey-Stephens Park",
    "city": "North Little Rock",
    "state": "Arkansas",
    "lat": 34.75513,
    "lon": -92.2725899,
    "status": "Scheduled",
    "timeTBD": false,
    "ticketUrl": "https://mlb.tickets.com/?agency=MILB_MPV&orgid=58453&pid=9636886"
  },
  {
    "id": 822423,
    "date": "2026-06-09T23:35:00Z",
    "sportId": 13,
    "league": "High-A",
    "home": "Bowling Green Hot Rods",
    "away": "Rome Emperors",
    "homeId": 2498,
    "awayId": 432,
    "venue": "Bowling Green Ballpark",
    "city": "Bowling Green",
    "state": "Kentucky",
    "lat": 36.9957207,
    "lon": -86.4411401,
    "status": "Scheduled",
    "timeTBD": false,
    "ticketUrl": "https://www.ticketreturn.com/prod2new//BuyClear.asp?EventID=354454&continue=buynew.asp"
  },
  {
    "id": 824105,
    "date": "2026-06-09T23:40:00Z",
    "sportId": 1,
    "league": "MLB",
    "home": "Kansas City Royals",
    "away": "Texas Rangers",
    "homeId": 118,
    "awayId": 140,
    "venue": "Kauffman Stadium",
    "city": "Kansas City",
    "state": "Missouri",
    "lat": 39.051567,
    "lon": -94.480483,
    "status": "Scheduled",
    "timeTBD": false,
    "ticketUrl": "https://mlb.tickets.com/?agency=MLB_MPV&orgid=11&pid=9609686"
  },
  {
    "id": 824591,
    "date": "2026-06-09T23:40:00Z",
    "sportId": 1,
    "league": "MLB",
    "home": "Chicago White Sox",
    "away": "Atlanta Braves",
    "homeId": 145,
    "awayId": 144,
    "venue": "Rate Field",
    "city": "Chicago",
    "state": "Illinois",
    "lat": 41.83,
    "lon": -87.634167,
    "status": "Scheduled",
    "timeTBD": false,
    "ticketUrl": "https://www.ticketmaster.com/event/04006356ACE35237"
  },
  {
    "id": 819480,
    "date": "2026-06-09T23:40:00Z",
    "sportId": 13,
    "league": "High-A",
    "home": "Wisconsin Timber Rattlers",
    "away": "Great Lakes Loons",
    "homeId": 572,
    "awayId": 456,
    "venue": "Neuroscience Group Field",
    "city": "Appleton",
    "state": "Wisconsin",
    "lat": 44.282871,
    "lon": -88.469427,
    "status": "Scheduled",
    "timeTBD": false,
    "ticketUrl": "https://mlb.tickets.com/?agency=MILB_MPV&orgid=58269&mkt_code=WTRWEB&eventId=3105"
  },
  {
    "id": 815069,
    "date": "2026-06-09T23:45:00Z",
    "sportId": 11,
    "league": "Triple-A",
    "home": "Round Rock Express",
    "away": "El Paso Chihuahuas",
    "homeId": 102,
    "awayId": 4904,
    "venue": "Dell Diamond",
    "city": "Round Rock",
    "state": "Texas",
    "lat": 30.527463,
    "lon": -97.630397,
    "status": "Scheduled",
    "timeTBD": false,
    "ticketUrl": "https://mlb.tickets.com/?orgId=58189&agency=MILB_MPV&eventId=27377"
  },
  {
    "id": 817086,
    "date": "2026-06-10T00:00:00Z",
    "sportId": 12,
    "league": "Double-A",
    "home": "Tulsa Drillers",
    "away": "Wichita Wind Surge",
    "homeId": 260,
    "awayId": 3898,
    "venue": "ONEOK Field",
    "city": "Tulsa",
    "state": "Oklahoma",
    "lat": 36.1601215,
    "lon": -95.9888782,
    "status": "Scheduled",
    "timeTBD": false,
    "ticketUrl": "https://mlb.tickets.com/?orgId=57369&agency=MILB_MPV&eventId=17003"
  },
  {
    "id": 818127,
    "date": "2026-06-10T00:00:00Z",
    "sportId": 12,
    "league": "Double-A",
    "home": "Birmingham Barons",
    "away": "Biloxi Shuckers",
    "homeId": 247,
    "awayId": 5015,
    "venue": "Regions Field",
    "city": "Birmingham",
    "state": "Alabama",
    "lat": 33.5077928,
    "lon": -86.8120366,
    "status": "Scheduled",
    "timeTBD": false,
    "ticketUrl": "https://mlb.tickets.com/?agency=MILB_MPV&orgid=57391&eventId=14989"
  },
  {
    "id": 815966,
    "date": "2026-06-10T00:05:00Z",
    "sportId": 11,
    "league": "Triple-A",
    "home": "Omaha Storm Chasers",
    "away": "Las Vegas Aviators",
    "homeId": 541,
    "awayId": 400,
    "venue": "Werner Park",
    "city": "Papillion",
    "state": "Nebraska",
    "lat": 41.1510945,
    "lon": -96.1057988,
    "status": "Scheduled",
    "timeTBD": false,
    "ticketUrl": "https://mlb.tickets.com/?agency=MILB_MPV&orgid=57870&pid=9592045"
  },
  {
    "id": 814851,
    "date": "2026-06-10T00:05:00Z",
    "sportId": 11,
    "league": "Triple-A",
    "home": "Sugar Land Space Cowboys",
    "away": "Sacramento River Cats",
    "homeId": 5434,
    "awayId": 105,
    "venue": "Constellation Field",
    "city": "Sugar Land",
    "state": "Texas",
    "lat": 29.62275645,
    "lon": -95.64718344,
    "status": "Scheduled",
    "timeTBD": false,
    "ticketUrl": "https://mlb.tickets.com/?agency=MILB_MPV&orgid=58649&eventId=6798&mkt_code=SLS_WEB#"
  },
  {
    "id": 817220,
    "date": "2026-06-10T00:05:00Z",
    "sportId": 12,
    "league": "Double-A",
    "home": "San Antonio Missions",
    "away": "Frisco RoughRiders",
    "homeId": 510,
    "awayId": 540,
    "venue": "Nelson Wolff Stadium",
    "city": "San Antonio",
    "state": "Texas",
    "lat": 29.40978,
    "lon": -98.60189,
    "status": "Scheduled",
    "timeTBD": false,
    "ticketUrl": "https://mlb.tickets.com/?orgId=53849&agency=MILB_MPV&eventId=26703"
  },
  {
    "id": 824347,
    "date": "2026-06-10T00:40:00Z",
    "sportId": 1,
    "league": "MLB",
    "home": "Colorado Rockies",
    "away": "Chicago Cubs",
    "homeId": 115,
    "awayId": 112,
    "venue": "Coors Field",
    "city": "Denver",
    "state": "Colorado",
    "lat": 39.756042,
    "lon": -104.994136,
    "status": "Scheduled",
    "timeTBD": false,
    "ticketUrl": "https://www.ticketmaster.com/event/1E00636AD33A9064"
  },
  {
    "id": 821264,
    "date": "2026-06-10T01:05:00Z",
    "sportId": 14,
    "league": "Single-A",
    "home": "Lake Elsinore Storm",
    "away": "Ontario Tower Buzzers",
    "homeId": 103,
    "awayId": 6482,
    "venue": "The Diamond",
    "city": "Lake Elsinore",
    "state": "California",
    "lat": 33.654183,
    "lon": -117.3010675,
    "status": "Scheduled",
    "timeTBD": false,
    "ticketUrl": "https://www.ticketmaster.com/event/0900635FAE057650"
  },
  {
    "id": 815143,
    "date": "2026-06-10T01:35:00Z",
    "sportId": 11,
    "league": "Triple-A",
    "home": "Reno Aces",
    "away": "Salt Lake Bees",
    "homeId": 2310,
    "awayId": 561,
    "venue": "Greater Nevada Field",
    "city": "Reno",
    "state": "Nevada",
    "lat": 39.52812,
    "lon": -119.80901,
    "status": "Scheduled",
    "timeTBD": false,
    "ticketUrl": "https://mlb.tickets.com/?orgId=53072&agency=MILB_MPV&eventId=18853"
  },
  {
    "id": 819292,
    "date": "2026-06-10T01:35:00Z",
    "sportId": 13,
    "league": "High-A",
    "home": "Hillsboro Hops",
    "away": "Tri-City Dust Devils",
    "homeId": 419,
    "awayId": 460,
    "venue": "Hops Ballpark",
    "city": "Hillsboro",
    "state": "Oregon",
    "lat": 45.554,
    "lon": -122.9085,
    "status": "Scheduled",
    "timeTBD": false,
    "ticketUrl": "https://mlb.tickets.com/?orgId=58151&agency=MILB_MPV&eventId=19536"
  },
  {
    "id": 819413,
    "date": "2026-06-10T01:35:00Z",
    "sportId": 13,
    "league": "High-A",
    "home": "Eugene Emeralds",
    "away": "Spokane Indians",
    "homeId": 461,
    "awayId": 486,
    "venue": "PK Park",
    "city": "Eugene",
    "state": "Oregon",
    "lat": 44.059012,
    "lon": -123.065482,
    "status": "Scheduled",
    "timeTBD": false,
    "ticketUrl": "https://mlb.tickets.com/?orgId=54053&agency=MILB_MPV&eventId=18989"
  },
  {
    "id": 820931,
    "date": "2026-06-10T01:35:00Z",
    "sportId": 14,
    "league": "Single-A",
    "home": "Visalia Rawhide",
    "away": "Fresno Grizzlies",
    "homeId": 516,
    "awayId": 259,
    "venue": "Valley Strong Ballpark",
    "city": "Visalia",
    "state": "California",
    "lat": 36.3320197,
    "lon": -119.3053325,
    "status": "Scheduled",
    "timeTBD": false,
    "ticketUrl": "https://www.ticketreturn.com/prod2new/BuyNew.asp?EventID=355394"
  },
  {
    "id": 821337,
    "date": "2026-06-10T01:35:00Z",
    "sportId": 14,
    "league": "Single-A",
    "home": "Inland Empire 66ers",
    "away": "Rancho Cucamonga Quakes",
    "homeId": 401,
    "awayId": 526,
    "venue": "San Manuel Stadium",
    "city": "San Bernardino",
    "state": "California",
    "lat": 34.097266,
    "lon": -117.296268,
    "status": "Scheduled",
    "timeTBD": false,
    "ticketUrl": "https://mlb.tickets.com/?orgId=57609&agency=MILB_MPV&eventId=16513"
  },
  {
    "id": 824023,
    "date": "2026-06-10T01:38:00Z",
    "sportId": 1,
    "league": "MLB",
    "home": "Los Angeles Angels",
    "away": "Houston Astros",
    "homeId": 108,
    "awayId": 117,
    "venue": "Angel Stadium",
    "city": "Anaheim",
    "state": "California",
    "lat": 33.80019044,
    "lon": -117.8823996,
    "status": "Scheduled",
    "timeTBD": false,
    "ticketUrl": "https://www.mlb.com/app/ballpark/angels/tickets/single-game-tickets/home-game-33/public"
  },
  {
    "id": 823290,
    "date": "2026-06-10T01:40:00Z",
    "sportId": 1,
    "league": "MLB",
    "home": "San Diego Padres",
    "away": "Cincinnati Reds",
    "homeId": 135,
    "awayId": 113,
    "venue": "Petco Park",
    "city": "San Diego",
    "state": "California",
    "lat": 32.707861,
    "lon": -117.157278,
    "status": "Scheduled",
    "timeTBD": false,
    "ticketUrl": "https://mlb.tickets.com/?orgid=58251&agency=MLB_MPV&pid=9657703"
  },
  {
    "id": 823214,
    "date": "2026-06-10T01:45:00Z",
    "sportId": 1,
    "league": "MLB",
    "home": "San Francisco Giants",
    "away": "Washington Nationals",
    "homeId": 137,
    "awayId": 120,
    "venue": "Oracle Park",
    "city": "San Francisco",
    "state": "California",
    "lat": 37.778383,
    "lon": -122.389448,
    "status": "Scheduled",
    "timeTBD": false,
    "ticketUrl": "https://mlb.tickets.com/?agency=MLB_MPV&orgid=2139&pid=9641678"
  },
  {
    "id": 824999,
    "date": "2026-06-10T02:05:00Z",
    "sportId": 1,
    "league": "MLB",
    "home": "Athletics",
    "away": "Milwaukee Brewers",
    "homeId": 133,
    "awayId": 158,
    "venue": "Las Vegas Ballpark",
    "city": "Las Vegas",
    "state": "Nevada",
    "lat": 36.152607,
    "lon": -115.329888,
    "status": "Scheduled",
    "timeTBD": false,
    "ticketUrl": "https://mlb.tickets.com/?agency=MLB_MPV&orgId=57649&pid=9647646"
  },
  {
    "id": 819075,
    "date": "2026-06-10T02:05:00Z",
    "sportId": 13,
    "league": "High-A",
    "home": "Vancouver Canadians",
    "away": "Everett AquaSox",
    "homeId": 435,
    "awayId": 403,
    "venue": "Rogers Field at Nat Bailey Stadium",
    "city": "Vancouver",
    "state": "British Columbia",
    "lat": 49.2431966,
    "lon": -123.1054384,
    "status": "Scheduled",
    "timeTBD": false,
    "ticketUrl": "https://mlb.tickets.com/?agency=MILB_MPV&orgid=57029&eventID=16132"
  },
  {
    "id": 821000,
    "date": "2026-06-10T02:05:00Z",
    "sportId": 14,
    "league": "Single-A",
    "home": "Stockton Ports",
    "away": "San Jose Giants",
    "homeId": 524,
    "awayId": 476,
    "venue": "Banner Island Ballpark",
    "city": "Stockton",
    "state": "California",
    "lat": 37.954863,
    "lon": -121.297357,
    "status": "Scheduled",
    "timeTBD": false,
    "ticketUrl": "https://mlb.tickets.com/?orgId=56609&agency=MILB_MPV&eventId=18470#"
  },
  {
    "id": 816865,
    "date": "2026-06-10T15:05:00Z",
    "sportId": 11,
    "league": "Triple-A",
    "home": "Charlotte Knights",
    "away": "Oklahoma City Comets",
    "homeId": 494,
    "awayId": 238,
    "venue": "Truist Field",
    "city": "Charlotte",
    "state": "North Carolina",
    "lat": 35.22781,
    "lon": -80.84823,
    "status": "Scheduled",
    "timeTBD": false,
    "ticketUrl": "https://mlb.tickets.com/?agency=MILB_MPV&orgid=57709&eventid=3423#"
  },
  {
    "id": 819876,
    "date": "2026-06-10T15:05:00Z",
    "sportId": 13,
    "league": "High-A",
    "home": "Lake County Captains",
    "away": "West Michigan Whitecaps",
    "homeId": 437,
    "awayId": 582,
    "venue": "Classic Auto Group Park",
    "city": "Eastlake",
    "state": "Ohio",
    "lat": 41.6424351,
    "lon": -81.4367781,
    "status": "Scheduled",
    "timeTBD": false,
    "ticketUrl": "https://mlb.tickets.com/?orgId=57929&agency=MILB_MPV&eventId=2053"
  },
  {
    "id": 822098,
    "date": "2026-06-10T15:05:00Z",
    "sportId": 13,
    "league": "High-A",
    "home": "Hub City Spartanburgers",
    "away": "Asheville Tourists",
    "homeId": 6324,
    "awayId": 573,
    "venue": "Fifth Third Park",
    "city": "Spartanburg",
    "state": "South Carolina",
    "lat": 34.9449402,
    "lon": -81.9359415,
    "status": "Scheduled",
    "timeTBD": false,
    "ticketUrl": "https://mlb.tickets.com/?orgid=57729&agency=MILB_MPV&eventId=14871"
  },
  {
    "id": 827470,
    "date": "2026-06-10T16:05:00Z",
    "sportId": 14,
    "league": "Single-A",
    "home": "Charleston RiverDogs",
    "away": "Hickory Crawdads",
    "homeId": 233,
    "awayId": 448,
    "venue": "Joseph P. Riley, Jr. Ballpark",
    "city": "Charleston",
    "state": "South Carolina",
    "lat": 32.790421,
    "lon": -79.961332,
    "status": "Scheduled",
    "timeTBD": false,
    "ticketUrl": "https://mlb.tickets.com/?orgId=55016&agency=MILB_MPV&eventId=61126"
  },
  {
    "id": 817159,
    "date": "2026-06-10T16:15:00Z",
    "sportId": 12,
    "league": "Double-A",
    "home": "Springfield Cardinals",
    "away": "Amarillo Sod Poodles",
    "homeId": 440,
    "awayId": 5368,
    "venue": "Route 66 Stadium",
    "city": "Springfield",
    "state": "Missouri",
    "lat": 37.21078,
    "lon": -93.2797,
    "status": "Scheduled",
    "timeTBD": false,
    "ticketUrl": "https://mlb.tickets.com/?agency=MILB_MPV&orgid=57049&pid=9584820"
  },
  {
    "id": 815965,
    "date": "2026-06-10T17:05:00Z",
    "sportId": 11,
    "league": "Triple-A",
    "home": "Omaha Storm Chasers",
    "away": "Las Vegas Aviators",
    "homeId": 541,
    "awayId": 400,
    "venue": "Werner Park",
    "city": "Papillion",
    "state": "Nebraska",
    "lat": 41.1510945,
    "lon": -96.1057988,
    "status": "Scheduled",
    "timeTBD": false,
    "ticketUrl": "https://mlb.tickets.com/?agency=MILB_MPV&orgid=57870&pid=9592046"
  },
  {
    "id": 817087,
    "date": "2026-06-10T17:05:00Z",
    "sportId": 12,
    "league": "Double-A",
    "home": "Tulsa Drillers",
    "away": "Wichita Wind Surge",
    "homeId": 260,
    "awayId": 3898,
    "venue": "ONEOK Field",
    "city": "Tulsa",
    "state": "Oklahoma",
    "lat": 36.1601215,
    "lon": -95.9888782,
    "status": "Scheduled",
    "timeTBD": false,
    "ticketUrl": "https://mlb.tickets.com/?orgId=57369&agency=MILB_MPV&eventId=17004"
  },
  {
    "id": 822424,
    "date": "2026-06-10T17:05:00Z",
    "sportId": 13,
    "league": "High-A",
    "home": "Bowling Green Hot Rods",
    "away": "Rome Emperors",
    "homeId": 2498,
    "awayId": 432,
    "venue": "Bowling Green Ballpark",
    "city": "Bowling Green",
    "state": "Kentucky",
    "lat": 36.9957207,
    "lon": -86.4411401,
    "status": "Scheduled",
    "timeTBD": false,
    "ticketUrl": "https://www.ticketreturn.com/prod2new//BuyClear.asp?EventID=354461&continue=buynew.asp"
  },
  {
    "id": 822970,
    "date": "2026-06-10T17:10:00Z",
    "sportId": 1,
    "league": "MLB",
    "home": "Tampa Bay Rays",
    "away": "Boston Red Sox",
    "homeId": 139,
    "awayId": 111,
    "venue": "Tropicana Field",
    "city": "St. Petersburg",
    "state": "Florida",
    "lat": 27.767778,
    "lon": -82.6525,
    "status": "Scheduled",
    "timeTBD": false,
    "ticketUrl": "https://mlb.tickets.com/?orgid=25&agency=MLB_MPV&pid=9628344"
  },
  {
    "id": 824428,
    "date": "2026-06-10T17:10:00Z",
    "sportId": 1,
    "league": "MLB",
    "home": "Cleveland Guardians",
    "away": "New York Yankees",
    "homeId": 114,
    "awayId": 147,
    "venue": "Progressive Field",
    "city": "Cleveland",
    "state": "Ohio",
    "lat": 41.495861,
    "lon": -81.685255,
    "status": "Scheduled",
    "timeTBD": false,
    "ticketUrl": "https://mlb.tickets.com/?agency=MLB_MPV&orgid=27&pid=9658535"
  },
  {
    "id": 819478,
    "date": "2026-06-10T17:10:00Z",
    "sportId": 13,
    "league": "High-A",
    "home": "Wisconsin Timber Rattlers",
    "away": "Great Lakes Loons",
    "homeId": 572,
    "awayId": 456,
    "venue": "Neuroscience Group Field",
    "city": "Appleton",
    "state": "Wisconsin",
    "lat": 44.282871,
    "lon": -88.469427,
    "status": "Scheduled",
    "timeTBD": false,
    "ticketUrl": "https://mlb.tickets.com/?agency=MILB_MPV&orgid=58269&mkt_code=WTRWEB&eventId=3106"
  },
  {
    "id": 819944,
    "date": "2026-06-10T17:15:00Z",
    "sportId": 13,
    "league": "High-A",
    "home": "Great Lakes Loons",
    "away": "Wisconsin Timber Rattlers",
    "homeId": 456,
    "awayId": 572,
    "venue": "Neuroscience Group Field",
    "city": "Appleton",
    "state": "Wisconsin",
    "lat": 44.282871,
    "lon": -88.469427,
    "status": "Scheduled",
    "timeTBD": true,
    "ticketUrl": null
  },
  {
    "id": 816575,
    "date": "2026-06-10T17:35:00Z",
    "sportId": 11,
    "league": "Triple-A",
    "home": "Indianapolis Indians",
    "away": "Columbus Clippers",
    "homeId": 484,
    "awayId": 445,
    "venue": "Victory Field",
    "city": "Indianapolis",
    "state": "Indiana",
    "lat": 39.7657354,
    "lon": -86.1682918,
    "status": "Scheduled",
    "timeTBD": false,
    "ticketUrl": "https://mlb.tickets.com/?orgId=54031&agency=MILB_MPV&eventId=63317#/event"
  },
  {
    "id": 823215,
    "date": "2026-06-10T19:45:00Z",
    "sportId": 1,
    "league": "MLB",
    "home": "San Francisco Giants",
    "away": "Washington Nationals",
    "homeId": 137,
    "awayId": 120,
    "venue": "Oracle Park",
    "city": "San Francisco",
    "state": "California",
    "lat": 37.778383,
    "lon": -122.389448,
    "status": "Scheduled",
    "timeTBD": false,
    "ticketUrl": "https://mlb.tickets.com/?agency=MLB_MPV&orgid=2139&pid=9641679"
  },
  {
    "id": 823287,
    "date": "2026-06-10T20:10:00Z",
    "sportId": 1,
    "league": "MLB",
    "home": "San Diego Padres",
    "away": "Cincinnati Reds",
    "homeId": 135,
    "awayId": 113,
    "venue": "Petco Park",
    "city": "San Diego",
    "state": "California",
    "lat": 32.707861,
    "lon": -117.157278,
    "status": "Scheduled",
    "timeTBD": false,
    "ticketUrl": "https://mlb.tickets.com/?orgid=58251&agency=MLB_MPV&pid=9657704"
  },
  {
    "id": 818601,
    "date": "2026-06-10T21:00:00Z",
    "sportId": 12,
    "league": "Double-A",
    "home": "Hartford Yard Goats",
    "away": "New Hampshire Fisher Cats",
    "homeId": 538,
    "awayId": 463,
    "venue": "Dunkin' Park",
    "city": "Hartford",
    "state": "Connecticut",
    "lat": 41.77079,
    "lon": -72.6743078,
    "status": "Scheduled",
    "timeTBD": false,
    "ticketUrl": "https://mlb.tickets.com/?orgId=56009&agency=MILB_MPV&eventId=60565"
  },
  {
    "id": 817844,
    "date": "2026-06-10T21:00:00Z",
    "sportId": 12,
    "league": "Double-A",
    "home": "Montgomery Biscuits",
    "away": "Knoxville Smokies",
    "homeId": 421,
    "awayId": 553,
    "venue": "DABOS Park",
    "city": "Montgomery",
    "state": "Alabama",
    "lat": 32.382298,
    "lon": -86.310592,
    "status": "Scheduled",
    "timeTBD": false,
    "ticketUrl": "https://www.ticketreturn.com/prod2new/BuyNew.asp?EventID=356497"
  },
  {
    "id": 818537,
    "date": "2026-06-10T21:05:00Z",
    "sportId": 12,
    "league": "Double-A",
    "home": "New Hampshire Fisher Cats",
    "away": "Hartford Yard Goats",
    "homeId": 463,
    "awayId": 538,
    "venue": "Dunkin' Park",
    "city": "Hartford",
    "state": "Connecticut",
    "lat": 41.77079,
    "lon": -72.6743078,
    "status": "Scheduled",
    "timeTBD": true,
    "ticketUrl": null
  },
  {
    "id": 817921,
    "date": "2026-06-10T21:05:00Z",
    "sportId": 12,
    "league": "Double-A",
    "home": "Knoxville Smokies",
    "away": "Montgomery Biscuits",
    "homeId": 553,
    "awayId": 421,
    "venue": "DABOS Park",
    "city": "Montgomery",
    "state": "Alabama",
    "lat": 32.382298,
    "lon": -86.310592,
    "status": "Scheduled",
    "timeTBD": true,
    "ticketUrl": null
  },
  {
    "id": 818948,
    "date": "2026-06-10T22:00:00Z",
    "sportId": 12,
    "league": "Double-A",
    "home": "Altoona Curve",
    "away": "Chesapeake Baysox",
    "homeId": 452,
    "awayId": 418,
    "venue": "Peoples Natural Gas Field",
    "city": "Altoona",
    "state": "Pennsylvania",
    "lat": 40.473826,
    "lon": -78.394753,
    "status": "Scheduled",
    "timeTBD": false,
    "ticketUrl": "https://www.ticketmaster.com/event/02006437CA34E047"
  },
  {
    "id": 818125,
    "date": "2026-06-10T22:00:00Z",
    "sportId": 12,
    "league": "Double-A",
    "home": "Birmingham Barons",
    "away": "Biloxi Shuckers",
    "homeId": 247,
    "awayId": 5015,
    "venue": "Regions Field",
    "city": "Birmingham",
    "state": "Alabama",
    "lat": 33.5077928,
    "lon": -86.8120366,
    "status": "Scheduled",
    "timeTBD": false,
    "ticketUrl": "https://mlb.tickets.com/?agency=MILB_MPV&orgid=57391&eventId=14990"
  },
  {
    "id": 818200,
    "date": "2026-06-10T22:05:00Z",
    "sportId": 12,
    "league": "Double-A",
    "home": "Biloxi Shuckers",
    "away": "Birmingham Barons",
    "homeId": 5015,
    "awayId": 247,
    "venue": "Regions Field",
    "city": "Birmingham",
    "state": "Alabama",
    "lat": 33.5077928,
    "lon": -86.8120366,
    "status": "Scheduled",
    "timeTBD": true,
    "ticketUrl": null
  },
  {
    "id": 818742,
    "date": "2026-06-10T22:05:00Z",
    "sportId": 12,
    "league": "Double-A",
    "home": "Erie SeaWolves",
    "away": "Akron RubberDucks",
    "homeId": 106,
    "awayId": 402,
    "venue": "UPMC Park",
    "city": "Erie",
    "state": "Pennsylvania",
    "lat": 42.12706,
    "lon": -80.0803,
    "status": "Scheduled",
    "timeTBD": false,
    "ticketUrl": "https://mlb.tickets.com/?agency=MILB_MPV&orgid=57949&eventId=2212"
  },
  {
    "id": 822224,
    "date": "2026-06-10T22:30:00Z",
    "sportId": 13,
    "league": "High-A",
    "home": "Greensboro Grasshoppers",
    "away": "Wilmington Blue Rocks",
    "homeId": 477,
    "awayId": 426,
    "venue": "First National Bank Field",
    "city": "Greensboro",
    "state": "North Carolina",
    "lat": 36.07667,
    "lon": -79.79487,
    "status": "Scheduled",
    "timeTBD": false,
    "ticketUrl": "https://www.ticketreturn.com/prod2new/Buy.asp?EventID=356653"
  },
  {
    "id": 826995,
    "date": "2026-06-10T22:30:00Z",
    "sportId": 14,
    "league": "Single-A",
    "home": "Hill City Howlers",
    "away": "Wilson Warbirds",
    "homeId": 481,
    "awayId": 249,
    "venue": "City Stadium",
    "city": "Lynchburg",
    "state": "Virginia",
    "lat": 37.3930099,
    "lon": -79.1661,
    "status": "Scheduled",
    "timeTBD": false,
    "ticketUrl": "https://www.ticketreturn.com/prod2/Buy.asp?EventID=354195"
  },
  {
    "id": 820404,
    "date": "2026-06-10T22:30:00Z",
    "sportId": 14,
    "league": "Single-A",
    "home": "Palm Beach Cardinals",
    "away": "St. Lucie Mets",
    "homeId": 279,
    "awayId": 507,
    "venue": "Roger Dean Chevrolet Stadium",
    "city": "Jupiter",
    "state": "Florida",
    "lat": 26.890957,
    "lon": -80.116365,
    "status": "Scheduled",
    "timeTBD": false,
    "ticketUrl": "https://mlb.tickets.com/?agency=JUPV_PL_MPV&orgid=57091&pid=9680147"
  },
  {
    "id": 820798,
    "date": "2026-06-10T22:30:00Z",
    "sportId": 14,
    "league": "Single-A",
    "home": "Clearwater Threshers",
    "away": "Lakeland Flying Tigers",
    "homeId": 566,
    "awayId": 570,
    "venue": "BayCare Ballpark",
    "city": "Clearwater",
    "state": "Florida",
    "lat": 27.97159,
    "lon": -82.731714,
    "status": "Scheduled",
    "timeTBD": false,
    "ticketUrl": "http://mlb.tickets.com/?agency=MILB_MPV&orgid=38329&pid=9688840"
  },
  {
    "id": 820864,
    "date": "2026-06-10T22:30:00Z",
    "sportId": 14,
    "league": "Single-A",
    "home": "Bradenton Marauders",
    "away": "Tampa Tarpons",
    "homeId": 3390,
    "awayId": 587,
    "venue": "LECOM Park",
    "city": "Bradenton",
    "state": "Florida",
    "lat": 27.48553,
    "lon": -82.57038,
    "status": "Scheduled",
    "timeTBD": false,
    "ticketUrl": "https://mlb.tickets.com/?agency=MILB_MPV&orgId=35027&pid=9668229"
  },
  {
    "id": 824831,
    "date": "2026-06-10T22:35:00Z",
    "sportId": 1,
    "league": "MLB",
    "home": "Baltimore Orioles",
    "away": "Seattle Mariners",
    "homeId": 110,
    "awayId": 136,
    "venue": "Oriole Park at Camden Yards",
    "city": "Baltimore",
    "state": "Maryland",
    "lat": 39.283787,
    "lon": -76.621689,
    "status": "Scheduled",
    "timeTBD": false,
    "ticketUrl": "https://mlb.tickets.com/?agency=MLB_MPV&orgid=56069&pid=9632206"
  },
  {
    "id": 816271,
    "date": "2026-06-10T22:35:00Z",
    "sportId": 11,
    "league": "Triple-A",
    "home": "Louisville Bats",
    "away": "Iowa Cubs",
    "homeId": 416,
    "awayId": 451,
    "venue": "Louisville Slugger Field",
    "city": "Louisville",
    "state": "Kentucky",
    "lat": 38.2557199,
    "lon": -85.74479,
    "status": "Scheduled",
    "timeTBD": false,
    "ticketUrl": "https://mlb.tickets.com/?agency=MILB_MPV&orgId=57629&eventId=16197"
  },
  {
    "id": 816944,
    "date": "2026-06-10T22:35:00Z",
    "sportId": 11,
    "league": "Triple-A",
    "home": "Buffalo Bisons",
    "away": "Syracuse Mets",
    "homeId": 422,
    "awayId": 552,
    "venue": "Sahlen Field",
    "city": "Buffalo",
    "state": "New York",
    "lat": 42.880772,
    "lon": -78.873955,
    "status": "Scheduled",
    "timeTBD": false,
    "ticketUrl": "https://mlb.tickets.com/?orgId=58249&agency=MILB_MPV&eventId=3115"
  },
  {
    "id": 816044,
    "date": "2026-06-10T22:35:00Z",
    "sportId": 11,
    "league": "Triple-A",
    "home": "Norfolk Tides",
    "away": "Memphis Redbirds",
    "homeId": 568,
    "awayId": 235,
    "venue": "Harbor Park",
    "city": "Norfolk",
    "state": "Virginia",
    "lat": 36.84265,
    "lon": -76.27803,
    "status": "Scheduled",
    "timeTBD": false,
    "ticketUrl": "https://www.ticketmaster.com/norfolk-tides-vs-memphis-redbirds-norfolk-virginia-06-10-2026/event/010062F0A885506A"
  },
  {
    "id": 818261,
    "date": "2026-06-10T22:35:00Z",
    "sportId": 12,
    "league": "Double-A",
    "home": "Somerset Patriots",
    "away": "Binghamton Rumble Ponies",
    "homeId": 1956,
    "awayId": 505,
    "venue": "TD Bank Ballpark",
    "city": "Bridgewater",
    "state": "New Jersey",
    "lat": 40.56081907,
    "lon": -74.55328462,
    "status": "Scheduled",
    "timeTBD": false,
    "ticketUrl": "https://so1.glitnirticketing.com/soticket/web/stadiumg.php?status_id=2&event_id=67"
  },
  {
    "id": 822030,
    "date": "2026-06-10T22:35:00Z",
    "sportId": 13,
    "league": "High-A",
    "home": "Hudson Valley Renegades",
    "away": "Jersey Shore BlueClaws",
    "homeId": 537,
    "awayId": 427,
    "venue": "Heritage Financial Park",
    "city": "Wappingers Falls",
    "state": "New York",
    "lat": 41.52638,
    "lon": -73.96109,
    "status": "Scheduled",
    "timeTBD": false,
    "ticketUrl": "https://www.ticketmaster.com/event/0000642CECB8B261"
  },
  {
    "id": 820729,
    "date": "2026-06-10T22:35:00Z",
    "sportId": 14,
    "league": "Single-A",
    "home": "Daytona Tortugas",
    "away": "Jupiter Hammerheads",
    "homeId": 450,
    "awayId": 479,
    "venue": "Jackie Robinson Ballpark",
    "city": "Daytona Beach",
    "state": "Florida",
    "lat": 29.20922,
    "lon": -81.01596,
    "status": "Scheduled",
    "timeTBD": false,
    "ticketUrl": "https://mlb.tickets.com/?agency=MILB_MPV&orgid=57209&pid=9599063"
  },
  {
    "id": 826866,
    "date": "2026-06-10T22:35:00Z",
    "sportId": 14,
    "league": "Single-A",
    "home": "Salem RidgeYaks",
    "away": "Fayetteville Woodpeckers",
    "homeId": 414,
    "awayId": 3712,
    "venue": "Carilion Clinic Field",
    "city": "Salem",
    "state": "Virginia",
    "lat": 37.2861162,
    "lon": -80.037161,
    "status": "Scheduled",
    "timeTBD": false,
    "ticketUrl": "https://mlb.tickets.com/?orgId=57031&agency=MILB_MPV&eventId=14725"
  },
  {
    "id": 823372,
    "date": "2026-06-10T22:40:00Z",
    "sportId": 1,
    "league": "MLB",
    "home": "Pittsburgh Pirates",
    "away": "Los Angeles Dodgers",
    "homeId": 134,
    "awayId": 119,
    "venue": "PNC Park",
    "city": "Pittsburgh",
    "state": "Pennsylvania",
    "lat": 40.446904,
    "lon": -80.005753,
    "status": "Scheduled",
    "timeTBD": false,
    "ticketUrl": "https://mlb.tickets.com/?agency=MLB_MPV&orgid=7&pid=9643580"
  },
  {
    "id": 824266,
    "date": "2026-06-10T22:40:00Z",
    "sportId": 1,
    "league": "MLB",
    "home": "Detroit Tigers",
    "away": "Minnesota Twins",
    "homeId": 116,
    "awayId": 142,
    "venue": "Comerica Park",
    "city": "Detroit",
    "state": "Michigan",
    "lat": 42.3391151,
    "lon": -83.048695,
    "status": "Scheduled",
    "timeTBD": false,
    "ticketUrl": "https://mlb.tickets.com/?agency=MLB_MPV&orgid=28&pid=9685140"
  },
  {
    "id": 823856,
    "date": "2026-06-10T22:40:00Z",
    "sportId": 1,
    "league": "MLB",
    "home": "Miami Marlins",
    "away": "Arizona Diamondbacks",
    "homeId": 146,
    "awayId": 109,
    "venue": "loanDepot park",
    "city": "Miami",
    "state": "Florida",
    "lat": 25.77796236,
    "lon": -80.21951795,
    "status": "Scheduled",
    "timeTBD": false,
    "ticketUrl": "https://mlb.tickets.com/?orgid=20&agency=MLB_MPV&pid=9598917"
  },
  {
    "id": 822359,
    "date": "2026-06-10T22:40:00Z",
    "sportId": 13,
    "league": "High-A",
    "home": "Brooklyn Cyclones",
    "away": "Frederick Keys",
    "homeId": 453,
    "awayId": 493,
    "venue": "Maimonides Park",
    "city": "Brooklyn",
    "state": "New York",
    "lat": 40.57392,
    "lon": -73.98473,
    "status": "Scheduled",
    "timeTBD": false,
    "ticketUrl": "https://mlb.tickets.com/?orgid=58029&agency=MILB_MPV&eventId=4029"
  },
  {
    "id": 815892,
    "date": "2026-06-10T22:45:00Z",
    "sportId": 11,
    "league": "Triple-A",
    "home": "Rochester Red Wings",
    "away": "Worcester Red Sox",
    "homeId": 534,
    "awayId": 533,
    "venue": "ESL Ballpark",
    "city": "Rochester",
    "state": "New York",
    "lat": 43.158301,
    "lon": -77.619748,
    "status": "Scheduled",
    "timeTBD": false,
    "ticketUrl": "https://www.ticketreturn.com/prod2new/BuyNew.asp?EventID=354325"
  },
  {
    "id": 822153,
    "date": "2026-06-10T22:45:00Z",
    "sportId": 13,
    "league": "High-A",
    "home": "Greenville Drive",
    "away": "Winston-Salem Dash",
    "homeId": 428,
    "awayId": 580,
    "venue": "Fluor Field at the West End",
    "city": "Greenville",
    "state": "South Carolina",
    "lat": 34.84297,
    "lon": -82.40893,
    "status": "Scheduled",
    "timeTBD": false,
    "ticketUrl": "https://gd1.glitnirticketing.com/gdticket/web/stadiumg.php?status_id=2&event_id=93"
  },
  {
    "id": 818401,
    "date": "2026-06-10T23:00:00Z",
    "sportId": 12,
    "league": "Double-A",
    "home": "Reading Fightin Phils",
    "away": "Portland Sea Dogs",
    "homeId": 522,
    "awayId": 546,
    "venue": "FirstEnergy Stadium",
    "city": "Reading",
    "state": "Pennsylvania",
    "lat": 40.365558,
    "lon": -75.933816,
    "status": "Scheduled",
    "timeTBD": false,
    "ticketUrl": "https://www.ticketreturn.com/prod2/Buy.asp?EventID=356151"
  },
  {
    "id": 818055,
    "date": "2026-06-10T23:00:00Z",
    "sportId": 12,
    "league": "Double-A",
    "home": "Chattanooga Lookouts",
    "away": "Rocket City Trash Pandas",
    "homeId": 498,
    "awayId": 559,
    "venue": "Erlanger Park",
    "city": "Chattanooga",
    "state": "Tennessee",
    "lat": 35.02602956034051,
    "lon": -85.32085229852302,
    "status": "Scheduled",
    "timeTBD": false,
    "ticketUrl": "https://mlb.tickets.com/?orgId=57129&agency=MILB_MPV&eventId=61066"
  },
  {
    "id": 827058,
    "date": "2026-06-10T23:00:00Z",
    "sportId": 14,
    "league": "Single-A",
    "home": "Kannapolis Cannon Ballers",
    "away": "Fredericksburg Nationals",
    "homeId": 487,
    "awayId": 436,
    "venue": "Atrium Health Ballpark",
    "city": "Kannapolis",
    "state": "North Carolina",
    "lat": 35.4968555,
    "lon": -80.6282677,
    "status": "Scheduled",
    "timeTBD": false,
    "ticketUrl": "https://www.ticketreturn.com/prod2/Buy.asp?EventID=355592"
  },
  {
    "id": 816412,
    "date": "2026-06-10T23:05:00Z",
    "sportId": 11,
    "league": "Triple-A",
    "home": "Jacksonville Jumbo Shrimp",
    "away": "Gwinnett Stripers",
    "homeId": 564,
    "awayId": 431,
    "venue": "Vystar Ballpark",
    "city": "Jacksonville",
    "state": "Florida",
    "lat": 30.32533,
    "lon": -81.64256,
    "status": "Scheduled",
    "timeTBD": false,
    "ticketUrl": "https://mlb.tickets.com/?orgId=56689&agency=MILB_MPV&eventId=61732"
  },
  {
    "id": 815825,
    "date": "2026-06-10T23:05:00Z",
    "sportId": 11,
    "league": "Triple-A",
    "home": "Scranton/Wilkes-Barre RailRiders",
    "away": "Lehigh Valley IronPigs",
    "homeId": 531,
    "awayId": 1410,
    "venue": "PNC Field",
    "city": "Moosic",
    "state": "Pennsylvania",
    "lat": 41.360672,
    "lon": -75.683676,
    "status": "Scheduled",
    "timeTBD": false,
    "ticketUrl": "https://www.ticketmaster.com/event/02006436D812D6E2"
  },
  {
    "id": 815598,
    "date": "2026-06-10T23:05:00Z",
    "sportId": 11,
    "league": "Triple-A",
    "home": "Toledo Mud Hens",
    "away": "St. Paul Saints",
    "homeId": 512,
    "awayId": 1960,
    "venue": "Fifth Third Field",
    "city": "Toledo",
    "state": "Ohio",
    "lat": 41.64767,
    "lon": -83.53838,
    "status": "Scheduled",
    "timeTBD": false,
    "ticketUrl": "https://mlb.tickets.com/?orgid=54891&agency=MILB_MPV&eventid=65114"
  },
  {
    "id": 818322,
    "date": "2026-06-10T23:05:00Z",
    "sportId": 12,
    "league": "Double-A",
    "home": "Richmond Flying Squirrels",
    "away": "Harrisburg Senators",
    "homeId": 3410,
    "awayId": 547,
    "venue": "CarMax Park",
    "city": "Richmond",
    "state": "Virginia",
    "lat": null,
    "lon": null,
    "status": "Scheduled",
    "timeTBD": false,
    "ticketUrl": "https://mlb.tickets.com/?agency=MILB_MPV&&orgid=53889&eventId=62158"
  },
  {
    "id": 819810,
    "date": "2026-06-10T23:05:00Z",
    "sportId": 13,
    "league": "High-A",
    "home": "Lansing Lugnuts",
    "away": "Cedar Rapids Kernels",
    "homeId": 499,
    "awayId": 492,
    "venue": "Jackson Field",
    "city": "Lansing",
    "state": "Michigan",
    "lat": 42.73465,
    "lon": -84.5455999,
    "status": "Scheduled",
    "timeTBD": false,
    "ticketUrl": "https://mlb.tickets.com/?agency=MILB_MPV&orgid=57009&eventId=15236"
  },
  {
    "id": 819614,
    "date": "2026-06-10T23:05:00Z",
    "sportId": 13,
    "league": "High-A",
    "home": "South Bend Cubs",
    "away": "Peoria Chiefs",
    "homeId": 550,
    "awayId": 443,
    "venue": "Four Winds Field",
    "city": "South Bend",
    "state": "Indiana",
    "lat": 41.6704099,
    "lon": -86.25547,
    "status": "Scheduled",
    "timeTBD": false,
    "ticketUrl": "https://mlb.tickets.com/?agency=MILB_MPV&orgid=55571&pid=9586889"
  },
  {
    "id": 820213,
    "date": "2026-06-10T23:05:00Z",
    "sportId": 13,
    "league": "High-A",
    "home": "Beloit Sky Carp",
    "away": "Quad Cities River Bandits",
    "homeId": 554,
    "awayId": 565,
    "venue": "ABC Supply Stadium",
    "city": "Beloit",
    "state": "Wisconsin",
    "lat": 42.496763,
    "lon": -89.0429539,
    "status": "Scheduled",
    "timeTBD": false,
    "ticketUrl": "https://mlb.tickets.com/?agency=MILB_MPV&orgid=55549&pid=9586597"
  },
  {
    "id": 820080,
    "date": "2026-06-10T23:05:00Z",
    "sportId": 13,
    "league": "High-A",
    "home": "Dayton Dragons",
    "away": "Fort Wayne TinCaps",
    "homeId": 459,
    "awayId": 584,
    "venue": "Day Air Ballpark",
    "city": "Dayton",
    "state": "Ohio",
    "lat": 39.764172,
    "lon": -84.185896,
    "status": "Scheduled",
    "timeTBD": false,
    "ticketUrl": "https://www.ticketmaster.com/event/16006444A4846EA2"
  },
  {
    "id": 820601,
    "date": "2026-06-10T23:05:00Z",
    "sportId": 14,
    "league": "Single-A",
    "home": "Fort Myers Mighty Mussels",
    "away": "Dunedin Blue Jays",
    "homeId": 509,
    "awayId": 424,
    "venue": "Lee Health Sports Complex",
    "city": "Fort Myers",
    "state": "Florida",
    "lat": 26.537803,
    "lon": -81.841973,
    "status": "Scheduled",
    "timeTBD": false,
    "ticketUrl": "https://mlb.tickets.com/?orgId=55029&agency=MILB_MPV&eventId=65047"
  },
  {
    "id": 826934,
    "date": "2026-06-10T23:05:00Z",
    "sportId": 14,
    "league": "Single-A",
    "home": "Myrtle Beach Pelicans",
    "away": "Augusta GreenJackets",
    "homeId": 521,
    "awayId": 478,
    "venue": "Pelicans Ballpark",
    "city": "Myrtle Beach",
    "state": "South Carolina",
    "lat": 33.711404,
    "lon": -78.88444,
    "status": "Scheduled",
    "timeTBD": false,
    "ticketUrl": "https://mlb.tickets.com/?orgId=57329&agency=MILB_MPV&eventId=63083"
  },
  {
    "id": 827407,
    "date": "2026-06-10T23:05:00Z",
    "sportId": 14,
    "league": "Single-A",
    "home": "Columbia Fireflies",
    "away": "Delmarva Shorebirds",
    "homeId": 3705,
    "awayId": 548,
    "venue": "Segra Park",
    "city": "Columbia",
    "state": "South Carolina",
    "lat": 34.018317,
    "lon": -81.030958,
    "status": "Scheduled",
    "timeTBD": false,
    "ticketUrl": "https://mlb.tickets.com/?orgId=57151&agency=MILB_MPV&eventId=63423"
  },
  {
    "id": 817983,
    "date": "2026-06-10T23:06:00Z",
    "sportId": 12,
    "league": "Double-A",
    "home": "Columbus Clingstones",
    "away": "Pensacola Blue Wahoos",
    "homeId": 6325,
    "awayId": 4124,
    "venue": "Synovus Park",
    "city": "Columbus",
    "state": "Georgia",
    "lat": 32.4523727,
    "lon": -84.9939591,
    "status": "Scheduled",
    "timeTBD": false,
    "ticketUrl": "https://mlb.tickets.com/?agency=MILB_MPV&orgid=57769&eventid=5149"
  },
  {
    "id": 822804,
    "date": "2026-06-10T23:07:00Z",
    "sportId": 1,
    "league": "MLB",
    "home": "Toronto Blue Jays",
    "away": "Philadelphia Phillies",
    "homeId": 141,
    "awayId": 143,
    "venue": "Rogers Centre",
    "city": "Toronto",
    "state": "Ontario",
    "lat": 43.64155,
    "lon": -79.38915,
    "status": "Scheduled",
    "timeTBD": false,
    "ticketUrl": "https://www.ticketmaster.ca/event/1000639186093CC7?artistid=806032&brand=bluejays2&landing=n"
  },
  {
    "id": 823618,
    "date": "2026-06-10T23:10:00Z",
    "sportId": 1,
    "league": "MLB",
    "home": "New York Mets",
    "away": "St. Louis Cardinals",
    "homeId": 121,
    "awayId": 138,
    "venue": "Citi Field",
    "city": "Flushing",
    "state": "New York",
    "lat": 40.75753012,
    "lon": -73.84559155,
    "status": "Scheduled",
    "timeTBD": false,
    "ticketUrl": "http://mlb.tickets.com/?agency=MLB_MPV&orgid=38129&pid=9667357"
  },
  {
    "id": 817358,
    "date": "2026-06-10T23:30:00Z",
    "sportId": 12,
    "league": "Double-A",
    "home": "Midland RockHounds",
    "away": "Corpus Christi Hooks",
    "homeId": 237,
    "awayId": 482,
    "venue": "Momentum Bank Ballpark",
    "city": "Midland",
    "state": "Texas",
    "lat": 31.98835,
    "lon": -102.15482,
    "status": "Scheduled",
    "timeTBD": false,
    "ticketUrl": "https://mlb.tickets.com/?agency=MILB_MPV&orgId=56877&eventId=15599"
  },
  {
    "id": 816122,
    "date": "2026-06-10T23:35:00Z",
    "sportId": 11,
    "league": "Triple-A",
    "home": "Nashville Sounds",
    "away": "Durham Bulls",
    "homeId": 556,
    "awayId": 234,
    "venue": "First Horizon Park",
    "city": "Nashville",
    "state": "Tennessee",
    "lat": 36.173218,
    "lon": -86.785171,
    "status": "Scheduled",
    "timeTBD": false,
    "ticketUrl": "https://www.ticketmaster.com/event/1B00642C78DC4C18?utm_source=Sounds&utm_medium=TLINK&utm_campaign=Sounds-TLINK"
  },
  {
    "id": 817566,
    "date": "2026-06-10T23:35:00Z",
    "sportId": 12,
    "league": "Double-A",
    "home": "Arkansas Travelers",
    "away": "Northwest Arkansas Naturals",
    "homeId": 574,
    "awayId": 1350,
    "venue": "Dickey-Stephens Park",
    "city": "North Little Rock",
    "state": "Arkansas",
    "lat": 34.75513,
    "lon": -92.2725899,
    "status": "Scheduled",
    "timeTBD": false,
    "ticketUrl": "https://mlb.tickets.com/?agency=MILB_MPV&orgid=58453&pid=9636887"
  },
  {
    "id": 824103,
    "date": "2026-06-10T23:40:00Z",
    "sportId": 1,
    "league": "MLB",
    "home": "Kansas City Royals",
    "away": "Texas Rangers",
    "homeId": 118,
    "awayId": 140,
    "venue": "Kauffman Stadium",
    "city": "Kansas City",
    "state": "Missouri",
    "lat": 39.051567,
    "lon": -94.480483,
    "status": "Scheduled",
    "timeTBD": false,
    "ticketUrl": "https://mlb.tickets.com/?agency=MLB_MPV&orgid=11&pid=9609687"
  },
  {
    "id": 824590,
    "date": "2026-06-10T23:40:00Z",
    "sportId": 1,
    "league": "MLB",
    "home": "Chicago White Sox",
    "away": "Atlanta Braves",
    "homeId": 145,
    "awayId": 144,
    "venue": "Rate Field",
    "city": "Chicago",
    "state": "Illinois",
    "lat": 41.83,
    "lon": -87.634167,
    "status": "Scheduled",
    "timeTBD": false,
    "ticketUrl": "https://www.ticketmaster.com/event/04006356ACE75239"
  },
  {
    "id": 815071,
    "date": "2026-06-10T23:45:00Z",
    "sportId": 11,
    "league": "Triple-A",
    "home": "Round Rock Express",
    "away": "El Paso Chihuahuas",
    "homeId": 102,
    "awayId": 4904,
    "venue": "Dell Diamond",
    "city": "Round Rock",
    "state": "Texas",
    "lat": 30.527463,
    "lon": -97.630397,
    "status": "Scheduled",
    "timeTBD": false,
    "ticketUrl": "https://mlb.tickets.com/?orgId=58189&agency=MILB_MPV&eventId=27378"
  },
  {
    "id": 814846,
    "date": "2026-06-11T00:05:00Z",
    "sportId": 11,
    "league": "Triple-A",
    "home": "Sugar Land Space Cowboys",
    "away": "Sacramento River Cats",
    "homeId": 5434,
    "awayId": 105,
    "venue": "Constellation Field",
    "city": "Sugar Land",
    "state": "Texas",
    "lat": 29.62275645,
    "lon": -95.64718344,
    "status": "Scheduled",
    "timeTBD": false,
    "ticketUrl": "https://mlb.tickets.com/?agency=MILB_MPV&orgid=58649&eventId=6799&mkt_code=SLS_WEB#"
  },
  {
    "id": 817221,
    "date": "2026-06-11T00:05:00Z",
    "sportId": 12,
    "league": "Double-A",
    "home": "San Antonio Missions",
    "away": "Frisco RoughRiders",
    "homeId": 510,
    "awayId": 540,
    "venue": "Nelson Wolff Stadium",
    "city": "San Antonio",
    "state": "Texas",
    "lat": 29.40978,
    "lon": -98.60189,
    "status": "Scheduled",
    "timeTBD": false,
    "ticketUrl": "https://mlb.tickets.com/?orgId=53849&agency=MILB_MPV&eventId=26704"
  },
  {
    "id": 824348,
    "date": "2026-06-11T00:40:00Z",
    "sportId": 1,
    "league": "MLB",
    "home": "Colorado Rockies",
    "away": "Chicago Cubs",
    "homeId": 115,
    "awayId": 112,
    "venue": "Coors Field",
    "city": "Denver",
    "state": "Colorado",
    "lat": 39.756042,
    "lon": -104.994136,
    "status": "Scheduled",
    "timeTBD": false,
    "ticketUrl": "https://www.ticketmaster.com/event/1E00636AD33E9066"
  },
  {
    "id": 824996,
    "date": "2026-06-11T01:05:00Z",
    "sportId": 1,
    "league": "MLB",
    "home": "Athletics",
    "away": "Milwaukee Brewers",
    "homeId": 133,
    "awayId": 158,
    "venue": "Las Vegas Ballpark",
    "city": "Las Vegas",
    "state": "Nevada",
    "lat": 36.152607,
    "lon": -115.329888,
    "status": "Scheduled",
    "timeTBD": false,
    "ticketUrl": "https://mlb.tickets.com/?agency=MLB_MPV&orgId=57649&pid=9647647"
  },
  {
    "id": 814770,
    "date": "2026-06-11T01:05:00Z",
    "sportId": 11,
    "league": "Triple-A",
    "home": "Tacoma Rainiers",
    "away": "Albuquerque Isotopes",
    "homeId": 529,
    "awayId": 342,
    "venue": "Cheney Stadium",
    "city": "Tacoma",
    "state": "Washington",
    "lat": 47.237981,
    "lon": -122.497643,
    "status": "Scheduled",
    "timeTBD": false,
    "ticketUrl": "https://www.ticketmaster.com/event/0F00643C0124B3F1"
  },
  {
    "id": 821268,
    "date": "2026-06-11T01:05:00Z",
    "sportId": 14,
    "league": "Single-A",
    "home": "Lake Elsinore Storm",
    "away": "Ontario Tower Buzzers",
    "homeId": 103,
    "awayId": 6482,
    "venue": "The Diamond",
    "city": "Lake Elsinore",
    "state": "California",
    "lat": 33.654183,
    "lon": -117.3010675,
    "status": "Scheduled",
    "timeTBD": false,
    "ticketUrl": "https://www.ticketmaster.com/event/0900635FAE077655"
  },
  {
    "id": 815138,
    "date": "2026-06-11T01:35:00Z",
    "sportId": 11,
    "league": "Triple-A",
    "home": "Reno Aces",
    "away": "Salt Lake Bees",
    "homeId": 2310,
    "awayId": 561,
    "venue": "Greater Nevada Field",
    "city": "Reno",
    "state": "Nevada",
    "lat": 39.52812,
    "lon": -119.80901,
    "status": "Scheduled",
    "timeTBD": false,
    "ticketUrl": "https://mlb.tickets.com/?orgId=53072&agency=MILB_MPV&eventId=18854"
  },
  {
    "id": 819280,
    "date": "2026-06-11T01:35:00Z",
    "sportId": 13,
    "league": "High-A",
    "home": "Hillsboro Hops",
    "away": "Tri-City Dust Devils",
    "homeId": 419,
    "awayId": 460,
    "venue": "Hops Ballpark",
    "city": "Hillsboro",
    "state": "Oregon",
    "lat": 45.554,
    "lon": -122.9085,
    "status": "Scheduled",
    "timeTBD": false,
    "ticketUrl": "https://mlb.tickets.com/?orgId=58151&agency=MILB_MPV&eventId=19537"
  },
  {
    "id": 819410,
    "date": "2026-06-11T01:35:00Z",
    "sportId": 13,
    "league": "High-A",
    "home": "Eugene Emeralds",
    "away": "Spokane Indians",
    "homeId": 461,
    "awayId": 486,
    "venue": "PK Park",
    "city": "Eugene",
    "state": "Oregon",
    "lat": 44.059012,
    "lon": -123.065482,
    "status": "Scheduled",
    "timeTBD": false,
    "ticketUrl": "https://mlb.tickets.com/?orgId=54053&agency=MILB_MPV&eventId=18990"
  },
  {
    "id": 820926,
    "date": "2026-06-11T01:35:00Z",
    "sportId": 14,
    "league": "Single-A",
    "home": "Visalia Rawhide",
    "away": "Fresno Grizzlies",
    "homeId": 516,
    "awayId": 259,
    "venue": "Valley Strong Ballpark",
    "city": "Visalia",
    "state": "California",
    "lat": 36.3320197,
    "lon": -119.3053325,
    "status": "Scheduled",
    "timeTBD": false,
    "ticketUrl": "https://www.ticketreturn.com/prod2new/BuyNew.asp?EventID=355395"
  },
  {
    "id": 821333,
    "date": "2026-06-11T01:35:00Z",
    "sportId": 14,
    "league": "Single-A",
    "home": "Inland Empire 66ers",
    "away": "Rancho Cucamonga Quakes",
    "homeId": 401,
    "awayId": 526,
    "venue": "San Manuel Stadium",
    "city": "San Bernardino",
    "state": "California",
    "lat": 34.097266,
    "lon": -117.296268,
    "status": "Scheduled",
    "timeTBD": false,
    "ticketUrl": "https://mlb.tickets.com/?orgId=57609&agency=MILB_MPV&eventId=16515"
  },
  {
    "id": 824022,
    "date": "2026-06-11T01:38:00Z",
    "sportId": 1,
    "league": "MLB",
    "home": "Los Angeles Angels",
    "away": "Houston Astros",
    "homeId": 108,
    "awayId": 117,
    "venue": "Angel Stadium",
    "city": "Anaheim",
    "state": "California",
    "lat": 33.80019044,
    "lon": -117.8823996,
    "status": "Scheduled",
    "timeTBD": false,
    "ticketUrl": "https://www.mlb.com/app/ballpark/angels/tickets/single-game-tickets/home-game-34/public"
  },
  {
    "id": 819077,
    "date": "2026-06-11T02:05:00Z",
    "sportId": 13,
    "league": "High-A",
    "home": "Vancouver Canadians",
    "away": "Everett AquaSox",
    "homeId": 435,
    "awayId": 403,
    "venue": "Rogers Field at Nat Bailey Stadium",
    "city": "Vancouver",
    "state": "British Columbia",
    "lat": 49.2431966,
    "lon": -123.1054384,
    "status": "Scheduled",
    "timeTBD": false,
    "ticketUrl": "https://mlb.tickets.com/?agency=MILB_MPV&orgid=57029&eventID=16133"
  },
  {
    "id": 820999,
    "date": "2026-06-11T02:05:00Z",
    "sportId": 14,
    "league": "Single-A",
    "home": "Stockton Ports",
    "away": "San Jose Giants",
    "homeId": 524,
    "awayId": 476,
    "venue": "Banner Island Ballpark",
    "city": "Stockton",
    "state": "California",
    "lat": 37.954863,
    "lon": -121.297357,
    "status": "Scheduled",
    "timeTBD": false,
    "ticketUrl": "https://mlb.tickets.com/?orgId=56609&agency=MILB_MPV&eventId=18471#"
  },
  {
    "id": 816043,
    "date": "2026-06-11T16:05:00Z",
    "sportId": 11,
    "league": "Triple-A",
    "home": "Norfolk Tides",
    "away": "Memphis Redbirds",
    "homeId": 568,
    "awayId": 235,
    "venue": "Harbor Park",
    "city": "Norfolk",
    "state": "Virginia",
    "lat": 36.84265,
    "lon": -76.27803,
    "status": "Scheduled",
    "timeTBD": false,
    "ticketUrl": "https://www.ticketmaster.com/norfolk-tides-vs-memphis-redbirds-norfolk-virginia-06-11-2026/event/010062F0A887507A"
  },
  {
    "id": 815893,
    "date": "2026-06-11T17:05:00Z",
    "sportId": 11,
    "league": "Triple-A",
    "home": "Rochester Red Wings",
    "away": "Worcester Red Sox",
    "homeId": 534,
    "awayId": 533,
    "venue": "ESL Ballpark",
    "city": "Rochester",
    "state": "New York",
    "lat": 43.158301,
    "lon": -77.619748,
    "status": "Scheduled",
    "timeTBD": false,
    "ticketUrl": "https://www.ticketreturn.com/prod2new/BuyNew.asp?EventID=354326"
  },
  {
    "id": 823619,
    "date": "2026-06-11T17:10:00Z",
    "sportId": 1,
    "league": "MLB",
    "home": "New York Mets",
    "away": "St. Louis Cardinals",
    "homeId": 121,
    "awayId": 138,
    "venue": "Citi Field",
    "city": "Flushing",
    "state": "New York",
    "lat": 40.75753012,
    "lon": -73.84559155,
    "status": "Scheduled",
    "timeTBD": false,
    "ticketUrl": "http://mlb.tickets.com/?agency=MLB_MPV&orgid=38129&pid=9682378"
  },
  {
    "id": 824265,
    "date": "2026-06-11T17:10:00Z",
    "sportId": 1,
    "league": "MLB",
    "home": "Detroit Tigers",
    "away": "Minnesota Twins",
    "homeId": 116,
    "awayId": 142,
    "venue": "Comerica Park",
    "city": "Detroit",
    "state": "Michigan",
    "lat": 42.3391151,
    "lon": -83.048695,
    "status": "Scheduled",
    "timeTBD": false,
    "ticketUrl": "https://mlb.tickets.com/?agency=MLB_MPV&orgid=28&pid=9685141"
  },
  {
    "id": 823855,
    "date": "2026-06-11T17:10:00Z",
    "sportId": 1,
    "league": "MLB",
    "home": "Miami Marlins",
    "away": "Arizona Diamondbacks",
    "homeId": 146,
    "awayId": 109,
    "venue": "loanDepot park",
    "city": "Miami",
    "state": "Florida",
    "lat": 25.77796236,
    "lon": -80.21951795,
    "status": "Scheduled",
    "timeTBD": false,
    "ticketUrl": "https://mlb.tickets.com/?orgid=20&agency=MLB_MPV&pid=9598918"
  },
  {
    "id": 815521,
    "date": "2026-06-11T17:10:00Z",
    "sportId": 11,
    "league": "Triple-A",
    "home": "Worcester Red Sox",
    "away": "Rochester Red Wings",
    "homeId": 533,
    "awayId": 534,
    "venue": "ESL Ballpark",
    "city": "Rochester",
    "state": "New York",
    "lat": 43.158301,
    "lon": -77.619748,
    "status": "Scheduled",
    "timeTBD": true,
    "ticketUrl": null
  },
  {
    "id": 824101,
    "date": "2026-06-11T18:10:00Z",
    "sportId": 1,
    "league": "MLB",
    "home": "Kansas City Royals",
    "away": "Texas Rangers",
    "homeId": 118,
    "awayId": 140,
    "venue": "Kauffman Stadium",
    "city": "Kansas City",
    "state": "Missouri",
    "lat": 39.051567,
    "lon": -94.480483,
    "status": "Scheduled",
    "timeTBD": false,
    "ticketUrl": "https://mlb.tickets.com/?agency=MLB_MPV&orgid=11&pid=9609644"
  },
  {
    "id": 824346,
    "date": "2026-06-11T19:10:00Z",
    "sportId": 1,
    "league": "MLB",
    "home": "Colorado Rockies",
    "away": "Chicago Cubs",
    "homeId": 115,
    "awayId": 112,
    "venue": "Coors Field",
    "city": "Denver",
    "state": "Colorado",
    "lat": 39.756042,
    "lon": -104.994136,
    "status": "Scheduled",
    "timeTBD": false,
    "ticketUrl": "https://www.ticketmaster.com/event/1E00636AD3419073"
  },
  {
    "id": 818950,
    "date": "2026-06-11T22:00:00Z",
    "sportId": 12,
    "league": "Double-A",
    "home": "Altoona Curve",
    "away": "Chesapeake Baysox",
    "homeId": 452,
    "awayId": 418,
    "venue": "Peoples Natural Gas Field",
    "city": "Altoona",
    "state": "Pennsylvania",
    "lat": 40.473826,
    "lon": -78.394753,
    "status": "Scheduled",
    "timeTBD": false,
    "ticketUrl": "https://www.ticketmaster.com/event/02006437CA39E052"
  },
  {
    "id": 818736,
    "date": "2026-06-11T22:05:00Z",
    "sportId": 12,
    "league": "Double-A",
    "home": "Erie SeaWolves",
    "away": "Akron RubberDucks",
    "homeId": 106,
    "awayId": 402,
    "venue": "UPMC Park",
    "city": "Erie",
    "state": "Pennsylvania",
    "lat": 42.12706,
    "lon": -80.0803,
    "status": "Scheduled",
    "timeTBD": false,
    "ticketUrl": "https://mlb.tickets.com/?agency=MILB_MPV&orgid=57949&eventId=2213"
  },
  {
    "id": 822228,
    "date": "2026-06-11T22:30:00Z",
    "sportId": 13,
    "league": "High-A",
    "home": "Greensboro Grasshoppers",
    "away": "Wilmington Blue Rocks",
    "homeId": 477,
    "awayId": 426,
    "venue": "First National Bank Field",
    "city": "Greensboro",
    "state": "North Carolina",
    "lat": 36.07667,
    "lon": -79.79487,
    "status": "Scheduled",
    "timeTBD": false,
    "ticketUrl": "https://www.ticketreturn.com/prod2new/Buy.asp?EventID=356654"
  },
  {
    "id": 826993,
    "date": "2026-06-11T22:30:00Z",
    "sportId": 14,
    "league": "Single-A",
    "home": "Hill City Howlers",
    "away": "Wilson Warbirds",
    "homeId": 481,
    "awayId": 249,
    "venue": "City Stadium",
    "city": "Lynchburg",
    "state": "Virginia",
    "lat": 37.3930099,
    "lon": -79.1661,
    "status": "Scheduled",
    "timeTBD": false,
    "ticketUrl": "https://www.ticketreturn.com/prod2/Buy.asp?EventID=354196"
  },
  {
    "id": 820402,
    "date": "2026-06-11T22:30:00Z",
    "sportId": 14,
    "league": "Single-A",
    "home": "Palm Beach Cardinals",
    "away": "St. Lucie Mets",
    "homeId": 279,
    "awayId": 507,
    "venue": "Roger Dean Chevrolet Stadium",
    "city": "Jupiter",
    "state": "Florida",
    "lat": 26.890957,
    "lon": -80.116365,
    "status": "Scheduled",
    "timeTBD": false,
    "ticketUrl": "https://mlb.tickets.com/?agency=JUPV_PL_MPV&orgid=57091&pid=9680148"
  },
  {
    "id": 820799,
    "date": "2026-06-11T22:30:00Z",
    "sportId": 14,
    "league": "Single-A",
    "home": "Clearwater Threshers",
    "away": "Lakeland Flying Tigers",
    "homeId": 566,
    "awayId": 570,
    "venue": "BayCare Ballpark",
    "city": "Clearwater",
    "state": "Florida",
    "lat": 27.97159,
    "lon": -82.731714,
    "status": "Scheduled",
    "timeTBD": false,
    "ticketUrl": "http://mlb.tickets.com/?agency=MILB_MPV&orgid=38329&pid=9688841"
  },
  {
    "id": 820870,
    "date": "2026-06-11T22:30:00Z",
    "sportId": 14,
    "league": "Single-A",
    "home": "Bradenton Marauders",
    "away": "Tampa Tarpons",
    "homeId": 3390,
    "awayId": 587,
    "venue": "LECOM Park",
    "city": "Bradenton",
    "state": "Florida",
    "lat": 27.48553,
    "lon": -82.57038,
    "status": "Scheduled",
    "timeTBD": false,
    "ticketUrl": "https://mlb.tickets.com/?agency=MILB_MPV&orgId=35027&pid=9668230"
  },
  {
    "id": 816270,
    "date": "2026-06-11T22:35:00Z",
    "sportId": 11,
    "league": "Triple-A",
    "home": "Louisville Bats",
    "away": "Iowa Cubs",
    "homeId": 416,
    "awayId": 451,
    "venue": "Louisville Slugger Field",
    "city": "Louisville",
    "state": "Kentucky",
    "lat": 38.2557199,
    "lon": -85.74479,
    "status": "Scheduled",
    "timeTBD": false,
    "ticketUrl": "https://mlb.tickets.com/?agency=MILB_MPV&orgId=57629&eventId=16198"
  },
  {
    "id": 816947,
    "date": "2026-06-11T22:35:00Z",
    "sportId": 11,
    "league": "Triple-A",
    "home": "Buffalo Bisons",
    "away": "Syracuse Mets",
    "homeId": 422,
    "awayId": 552,
    "venue": "Sahlen Field",
    "city": "Buffalo",
    "state": "New York",
    "lat": 42.880772,
    "lon": -78.873955,
    "status": "Scheduled",
    "timeTBD": false,
    "ticketUrl": "https://mlb.tickets.com/?orgId=58249&agency=MILB_MPV&eventId=3116"
  },
  {
    "id": 818262,
    "date": "2026-06-11T22:35:00Z",
    "sportId": 12,
    "league": "Double-A",
    "home": "Somerset Patriots",
    "away": "Binghamton Rumble Ponies",
    "homeId": 1956,
    "awayId": 505,
    "venue": "TD Bank Ballpark",
    "city": "Bridgewater",
    "state": "New Jersey",
    "lat": 40.56081907,
    "lon": -74.55328462,
    "status": "Scheduled",
    "timeTBD": false,
    "ticketUrl": "https://so1.glitnirticketing.com/soticket/web/stadiumg.php?status_id=2&event_id=68"
  },
  {
    "id": 822022,
    "date": "2026-06-11T22:35:00Z",
    "sportId": 13,
    "league": "High-A",
    "home": "Hudson Valley Renegades",
    "away": "Jersey Shore BlueClaws",
    "homeId": 537,
    "awayId": 427,
    "venue": "Heritage Financial Park",
    "city": "Wappingers Falls",
    "state": "New York",
    "lat": 41.52638,
    "lon": -73.96109,
    "status": "Scheduled",
    "timeTBD": false,
    "ticketUrl": "https://www.ticketmaster.com/event/0000642CECBBB269"
  },
  {
    "id": 822094,
    "date": "2026-06-11T22:35:00Z",
    "sportId": 13,
    "league": "High-A",
    "home": "Hub City Spartanburgers",
    "away": "Asheville Tourists",
    "homeId": 6324,
    "awayId": 573,
    "venue": "Fifth Third Park",
    "city": "Spartanburg",
    "state": "South Carolina",
    "lat": 34.9449402,
    "lon": -81.9359415,
    "status": "Scheduled",
    "timeTBD": false,
    "ticketUrl": "https://mlb.tickets.com/?orgid=57729&agency=MILB_MPV&eventId=14872"
  },
  {
    "id": 820730,
    "date": "2026-06-11T22:35:00Z",
    "sportId": 14,
    "league": "Single-A",
    "home": "Daytona Tortugas",
    "away": "Jupiter Hammerheads",
    "homeId": 450,
    "awayId": 479,
    "venue": "Jackie Robinson Ballpark",
    "city": "Daytona Beach",
    "state": "Florida",
    "lat": 29.20922,
    "lon": -81.01596,
    "status": "Scheduled",
    "timeTBD": false,
    "ticketUrl": "https://mlb.tickets.com/?agency=MILB_MPV&orgid=57209&pid=9599064"
  },
  {
    "id": 826864,
    "date": "2026-06-11T22:35:00Z",
    "sportId": 14,
    "league": "Single-A",
    "home": "Salem RidgeYaks",
    "away": "Fayetteville Woodpeckers",
    "homeId": 414,
    "awayId": 3712,
    "venue": "Carilion Clinic Field",
    "city": "Salem",
    "state": "Virginia",
    "lat": 37.2861162,
    "lon": -80.037161,
    "status": "Scheduled",
    "timeTBD": false,
    "ticketUrl": "https://mlb.tickets.com/?orgId=57031&agency=MILB_MPV&eventId=14726"
  },
  {
    "id": 823371,
    "date": "2026-06-11T22:40:00Z",
    "sportId": 1,
    "league": "MLB",
    "home": "Pittsburgh Pirates",
    "away": "Los Angeles Dodgers",
    "homeId": 134,
    "awayId": 119,
    "venue": "PNC Park",
    "city": "Pittsburgh",
    "state": "Pennsylvania",
    "lat": 40.446904,
    "lon": -80.005753,
    "status": "Scheduled",
    "timeTBD": false,
    "ticketUrl": "https://mlb.tickets.com/?agency=MLB_MPV&orgid=7&pid=9643581"
  },
  {
    "id": 822358,
    "date": "2026-06-11T22:40:00Z",
    "sportId": 13,
    "league": "High-A",
    "home": "Brooklyn Cyclones",
    "away": "Frederick Keys",
    "homeId": 453,
    "awayId": 493,
    "venue": "Maimonides Park",
    "city": "Brooklyn",
    "state": "New York",
    "lat": 40.57392,
    "lon": -73.98473,
    "status": "Scheduled",
    "timeTBD": false,
    "ticketUrl": "https://mlb.tickets.com/?orgid=58029&agency=MILB_MPV&eventId=4030"
  },
  {
    "id": 822154,
    "date": "2026-06-11T22:45:00Z",
    "sportId": 13,
    "league": "High-A",
    "home": "Greenville Drive",
    "away": "Winston-Salem Dash",
    "homeId": 428,
    "awayId": 580,
    "venue": "Fluor Field at the West End",
    "city": "Greenville",
    "state": "South Carolina",
    "lat": 34.84297,
    "lon": -82.40893,
    "status": "Scheduled",
    "timeTBD": false,
    "ticketUrl": "https://gd1.glitnirticketing.com/gdticket/web/stadiumg.php?status_id=2&event_id=100"
  },
  {
    "id": 818403,
    "date": "2026-06-11T23:00:00Z",
    "sportId": 12,
    "league": "Double-A",
    "home": "Reading Fightin Phils",
    "away": "Portland Sea Dogs",
    "homeId": 522,
    "awayId": 546,
    "venue": "FirstEnergy Stadium",
    "city": "Reading",
    "state": "Pennsylvania",
    "lat": 40.365558,
    "lon": -75.933816,
    "status": "Scheduled",
    "timeTBD": false,
    "ticketUrl": "https://www.ticketreturn.com/prod2/Buy.asp?EventID=356152"
  },
  {
    "id": 818057,
    "date": "2026-06-11T23:00:00Z",
    "sportId": 12,
    "league": "Double-A",
    "home": "Chattanooga Lookouts",
    "away": "Rocket City Trash Pandas",
    "homeId": 498,
    "awayId": 559,
    "venue": "Erlanger Park",
    "city": "Chattanooga",
    "state": "Tennessee",
    "lat": 35.02602956034051,
    "lon": -85.32085229852302,
    "status": "Scheduled",
    "timeTBD": false,
    "ticketUrl": "https://mlb.tickets.com/?orgId=57129&agency=MILB_MPV&eventId=61067"
  },
  {
    "id": 819870,
    "date": "2026-06-11T23:00:00Z",
    "sportId": 13,
    "league": "High-A",
    "home": "Lake County Captains",
    "away": "West Michigan Whitecaps",
    "homeId": 437,
    "awayId": 582,
    "venue": "Classic Auto Group Park",
    "city": "Eastlake",
    "state": "Ohio",
    "lat": 41.6424351,
    "lon": -81.4367781,
    "status": "Scheduled",
    "timeTBD": false,
    "ticketUrl": "https://mlb.tickets.com/?orgId=57929&agency=MILB_MPV&eventId=2054"
  },
  {
    "id": 827057,
    "date": "2026-06-11T23:00:00Z",
    "sportId": 14,
    "league": "Single-A",
    "home": "Kannapolis Cannon Ballers",
    "away": "Fredericksburg Nationals",
    "homeId": 487,
    "awayId": 436,
    "venue": "Atrium Health Ballpark",
    "city": "Kannapolis",
    "state": "North Carolina",
    "lat": 35.4968555,
    "lon": -80.6282677,
    "status": "Scheduled",
    "timeTBD": false,
    "ticketUrl": "https://www.ticketreturn.com/prod2/Buy.asp?EventID=355593"
  },
  {
    "id": 816862,
    "date": "2026-06-11T23:04:00Z",
    "sportId": 11,
    "league": "Triple-A",
    "home": "Charlotte Knights",
    "away": "Oklahoma City Comets",
    "homeId": 494,
    "awayId": 238,
    "venue": "Truist Field",
    "city": "Charlotte",
    "state": "North Carolina",
    "lat": 35.22781,
    "lon": -80.84823,
    "status": "Scheduled",
    "timeTBD": false,
    "ticketUrl": "https://mlb.tickets.com/?agency=MILB_MPV&orgid=57709&eventid=3424#"
  },
  {
    "id": 824827,
    "date": "2026-06-11T23:05:00Z",
    "sportId": 1,
    "league": "MLB",
    "home": "Baltimore Orioles",
    "away": "Seattle Mariners",
    "homeId": 110,
    "awayId": 136,
    "venue": "Oriole Park at Camden Yards",
    "city": "Baltimore",
    "state": "Maryland",
    "lat": 39.283787,
    "lon": -76.621689,
    "status": "Scheduled",
    "timeTBD": false,
    "ticketUrl": "https://mlb.tickets.com/?agency=MLB_MPV&orgid=56069&pid=9632207"
  },
  {
    "id": 816568,
    "date": "2026-06-11T23:05:00Z",
    "sportId": 11,
    "league": "Triple-A",
    "home": "Indianapolis Indians",
    "away": "Columbus Clippers",
    "homeId": 484,
    "awayId": 445,
    "venue": "Victory Field",
    "city": "Indianapolis",
    "state": "Indiana",
    "lat": 39.7657354,
    "lon": -86.1682918,
    "status": "Scheduled",
    "timeTBD": false,
    "ticketUrl": "https://mlb.tickets.com/?orgId=54031&agency=MILB_MPV&eventId=63318#/event"
  },
  {
    "id": 816416,
    "date": "2026-06-11T23:05:00Z",
    "sportId": 11,
    "league": "Triple-A",
    "home": "Jacksonville Jumbo Shrimp",
    "away": "Gwinnett Stripers",
    "homeId": 564,
    "awayId": 431,
    "venue": "Vystar Ballpark",
    "city": "Jacksonville",
    "state": "Florida",
    "lat": 30.32533,
    "lon": -81.64256,
    "status": "Scheduled",
    "timeTBD": false,
    "ticketUrl": "https://mlb.tickets.com/?orgId=56689&agency=MILB_MPV&eventId=61733"
  },
  {
    "id": 815820,
    "date": "2026-06-11T23:05:00Z",
    "sportId": 11,
    "league": "Triple-A",
    "home": "Scranton/Wilkes-Barre RailRiders",
    "away": "Lehigh Valley IronPigs",
    "homeId": 531,
    "awayId": 1410,
    "venue": "PNC Field",
    "city": "Moosic",
    "state": "Pennsylvania",
    "lat": 41.360672,
    "lon": -75.683676,
    "status": "Scheduled",
    "timeTBD": false,
    "ticketUrl": "https://www.ticketmaster.com/event/02006436D817D6E6"
  },
  {
    "id": 815594,
    "date": "2026-06-11T23:05:00Z",
    "sportId": 11,
    "league": "Triple-A",
    "home": "Toledo Mud Hens",
    "away": "St. Paul Saints",
    "homeId": 512,
    "awayId": 1960,
    "venue": "Fifth Third Field",
    "city": "Toledo",
    "state": "Ohio",
    "lat": 41.64767,
    "lon": -83.53838,
    "status": "Scheduled",
    "timeTBD": false,
    "ticketUrl": "https://mlb.tickets.com/?orgid=54891&agency=MILB_MPV&eventid=65115"
  },
  {
    "id": 818326,
    "date": "2026-06-11T23:05:00Z",
    "sportId": 12,
    "league": "Double-A",
    "home": "Richmond Flying Squirrels",
    "away": "Harrisburg Senators",
    "homeId": 3410,
    "awayId": 547,
    "venue": "CarMax Park",
    "city": "Richmond",
    "state": "Virginia",
    "lat": null,
    "lon": null,
    "status": "Scheduled",
    "timeTBD": false,
    "ticketUrl": "https://mlb.tickets.com/?agency=MILB_MPV&&orgid=53889&eventId=62159"
  },
  {
    "id": 819808,
    "date": "2026-06-11T23:05:00Z",
    "sportId": 13,
    "league": "High-A",
    "home": "Lansing Lugnuts",
    "away": "Cedar Rapids Kernels",
    "homeId": 499,
    "awayId": 492,
    "venue": "Jackson Field",
    "city": "Lansing",
    "state": "Michigan",
    "lat": 42.73465,
    "lon": -84.5455999,
    "status": "Scheduled",
    "timeTBD": false,
    "ticketUrl": "https://mlb.tickets.com/?agency=MILB_MPV&orgid=57009&eventId=15237"
  },
  {
    "id": 819616,
    "date": "2026-06-11T23:05:00Z",
    "sportId": 13,
    "league": "High-A",
    "home": "South Bend Cubs",
    "away": "Peoria Chiefs",
    "homeId": 550,
    "awayId": 443,
    "venue": "Four Winds Field",
    "city": "South Bend",
    "state": "Indiana",
    "lat": 41.6704099,
    "lon": -86.25547,
    "status": "Scheduled",
    "timeTBD": false,
    "ticketUrl": "https://mlb.tickets.com/?agency=MILB_MPV&orgid=55571&pid=9586890"
  },
  {
    "id": 820214,
    "date": "2026-06-11T23:05:00Z",
    "sportId": 13,
    "league": "High-A",
    "home": "Beloit Sky Carp",
    "away": "Quad Cities River Bandits",
    "homeId": 554,
    "awayId": 565,
    "venue": "ABC Supply Stadium",
    "city": "Beloit",
    "state": "Wisconsin",
    "lat": 42.496763,
    "lon": -89.0429539,
    "status": "Scheduled",
    "timeTBD": false,
    "ticketUrl": "https://mlb.tickets.com/?agency=MILB_MPV&orgid=55549&pid=9586598"
  },
  {
    "id": 820076,
    "date": "2026-06-11T23:05:00Z",
    "sportId": 13,
    "league": "High-A",
    "home": "Dayton Dragons",
    "away": "Fort Wayne TinCaps",
    "homeId": 459,
    "awayId": 584,
    "venue": "Day Air Ballpark",
    "city": "Dayton",
    "state": "Ohio",
    "lat": 39.764172,
    "lon": -84.185896,
    "status": "Scheduled",
    "timeTBD": false,
    "ticketUrl": "https://www.ticketmaster.com/event/16006444A4886EA6"
  },
  {
    "id": 827469,
    "date": "2026-06-11T23:05:00Z",
    "sportId": 14,
    "league": "Single-A",
    "home": "Charleston RiverDogs",
    "away": "Hickory Crawdads",
    "homeId": 233,
    "awayId": 448,
    "venue": "Joseph P. Riley, Jr. Ballpark",
    "city": "Charleston",
    "state": "South Carolina",
    "lat": 32.790421,
    "lon": -79.961332,
    "status": "Scheduled",
    "timeTBD": false,
    "ticketUrl": "https://mlb.tickets.com/?orgId=55016&agency=MILB_MPV&eventId=61127"
  },
  {
    "id": 820603,
    "date": "2026-06-11T23:05:00Z",
    "sportId": 14,
    "league": "Single-A",
    "home": "Fort Myers Mighty Mussels",
    "away": "Dunedin Blue Jays",
    "homeId": 509,
    "awayId": 424,
    "venue": "Lee Health Sports Complex",
    "city": "Fort Myers",
    "state": "Florida",
    "lat": 26.537803,
    "lon": -81.841973,
    "status": "Scheduled",
    "timeTBD": false,
    "ticketUrl": "https://mlb.tickets.com/?orgId=55029&agency=MILB_MPV&eventId=65048"
  },
  {
    "id": 826935,
    "date": "2026-06-11T23:05:00Z",
    "sportId": 14,
    "league": "Single-A",
    "home": "Myrtle Beach Pelicans",
    "away": "Augusta GreenJackets",
    "homeId": 521,
    "awayId": 478,
    "venue": "Pelicans Ballpark",
    "city": "Myrtle Beach",
    "state": "South Carolina",
    "lat": 33.711404,
    "lon": -78.88444,
    "status": "Scheduled",
    "timeTBD": false,
    "ticketUrl": "https://mlb.tickets.com/?orgId=57329&agency=MILB_MPV&eventId=63084"
  },
  {
    "id": 827406,
    "date": "2026-06-11T23:05:00Z",
    "sportId": 14,
    "league": "Single-A",
    "home": "Columbia Fireflies",
    "away": "Delmarva Shorebirds",
    "homeId": 3705,
    "awayId": 548,
    "venue": "Segra Park",
    "city": "Columbia",
    "state": "South Carolina",
    "lat": 34.018317,
    "lon": -81.030958,
    "status": "Scheduled",
    "timeTBD": false,
    "ticketUrl": "https://mlb.tickets.com/?orgId=57151&agency=MILB_MPV&eventId=63425"
  },
  {
    "id": 817982,
    "date": "2026-06-11T23:06:00Z",
    "sportId": 12,
    "league": "Double-A",
    "home": "Columbus Clingstones",
    "away": "Pensacola Blue Wahoos",
    "homeId": 6325,
    "awayId": 4124,
    "venue": "Synovus Park",
    "city": "Columbus",
    "state": "Georgia",
    "lat": 32.4523727,
    "lon": -84.9939591,
    "status": "Scheduled",
    "timeTBD": false,
    "ticketUrl": "https://mlb.tickets.com/?agency=MILB_MPV&orgid=57769&eventid=5133"
  },
  {
    "id": 818602,
    "date": "2026-06-11T23:10:00Z",
    "sportId": 12,
    "league": "Double-A",
    "home": "Hartford Yard Goats",
    "away": "New Hampshire Fisher Cats",
    "homeId": 538,
    "awayId": 463,
    "venue": "Dunkin' Park",
    "city": "Hartford",
    "state": "Connecticut",
    "lat": 41.77079,
    "lon": -72.6743078,
    "status": "Scheduled",
    "timeTBD": false,
    "ticketUrl": "https://mlb.tickets.com/?orgId=56009&agency=MILB_MPV&eventId=60566"
  },
  {
    "id": 816118,
    "date": "2026-06-11T23:35:00Z",
    "sportId": 11,
    "league": "Triple-A",
    "home": "Nashville Sounds",
    "away": "Durham Bulls",
    "homeId": 556,
    "awayId": 234,
    "venue": "First Horizon Park",
    "city": "Nashville",
    "state": "Tennessee",
    "lat": 36.173218,
    "lon": -86.785171,
    "status": "Scheduled",
    "timeTBD": false,
    "ticketUrl": "https://www.ticketmaster.com/event/1B00642C78E14C31?utm_source=Sounds&utm_medium=TLINK&utm_campaign=Sounds-TLINK"
  },
  {
    "id": 817839,
    "date": "2026-06-11T23:35:00Z",
    "sportId": 12,
    "league": "Double-A",
    "home": "Montgomery Biscuits",
    "away": "Knoxville Smokies",
    "homeId": 421,
    "awayId": 553,
    "venue": "DABOS Park",
    "city": "Montgomery",
    "state": "Alabama",
    "lat": 32.382298,
    "lon": -86.310592,
    "status": "Scheduled",
    "timeTBD": false,
    "ticketUrl": "https://www.ticketreturn.com/prod2new/BuyNew.asp?EventID=356498"
  },