[
  {
    "id": 824089,
    "date": "2026-07-06T18:10:00Z",
    "sportId": 1,
    "league": "MLB",
    "home": "Kansas City Royals",
    "away": "Philadelphia Phillies",
    "homeId": 118,
    "awayId": 143,
    "venue": "Kauffman Stadium",
    "city": "Kansas City",
    "state": "Missouri",
    "lat": 39.051567,
    "lon": -94.480483,
    "status": "Scheduled",
    "timeTBD": false,
    "ticketUrl": "https://mlb.tickets.com/?agency=MLB_MPV&orgid=11&pid=9609693"
  },
  {
    "id": 822958,
    "date": "2026-07-06T22:40:00Z",
    "sportId": 1,
    "league": "MLB",
    "home": "Tampa Bay Rays",
    "away": "New York Yankees",
    "homeId": 139,
    "awayId": 147,
    "venue": "Tropicana Field",
    "city": "St. Petersburg",
    "state": "Florida",
    "lat": 27.767778,
    "lon": -82.6525,
    "status": "Scheduled",
    "timeTBD": false,
    "ticketUrl": "https://mlb.tickets.com/?orgid=25&agency=MLB_MPV&pid=9628355"
  },
  {
    "id": 822712,
    "date": "2026-07-06T22:45:00Z",
    "sportId": 1,
    "league": "MLB",
    "home": "Washington Nationals",
    "away": "Houston Astros",
    "homeId": 120,
    "awayId": 117,
    "venue": "Nationals Park",
    "city": "Washington",
    "state": "District of Columbia",
    "lat": 38.872861,
    "lon": -77.007501,
    "status": "Scheduled",
    "timeTBD": false,
    "ticketUrl": "https://mlb.tickets.com/?orgid=17&agency=MLB_MPV&pid=9656001"
  },
  {
    "id": 824900,
    "date": "2026-07-06T23:15:00Z",
    "sportId": 1,
    "league": "MLB",
    "home": "Atlanta Braves",
    "away": "New York Mets",
    "homeId": 144,
    "awayId": 121,
    "venue": "Truist Park",
    "city": "Atlanta",
    "state": "Georgia",
    "lat": 33.890672,
    "lon": -84.467641,
    "status": "Scheduled",
    "timeTBD": false,
    "ticketUrl": "https://www.ticketmaster.com/event/0E00634DCBBC6E7F"
  },
  {
    "id": 823036,
    "date": "2026-07-06T23:45:00Z",
    "sportId": 1,
    "league": "MLB",
    "home": "St. Louis Cardinals",
    "away": "Milwaukee Brewers",
    "homeId": 138,
    "awayId": 158,
    "venue": "Busch Stadium",
    "city": "St. Louis",
    "state": "Missouri",
    "lat": 38.62256667,
    "lon": -90.19286667,
    "status": "Scheduled",
    "timeTBD": false,
    "ticketUrl": "https://mlb.tickets.com/?orgid=10&agency=MLB_MPV&pid=9626339"
  },
  {
    "id": 823282,
    "date": "2026-07-07T01:40:00Z",
    "sportId": 1,
    "league": "MLB",
    "home": "San Diego Padres",
    "away": "Arizona Diamondbacks",
    "homeId": 135,
    "awayId": 109,
    "venue": "Petco Park",
    "city": "San Diego",
    "state": "California",
    "lat": 32.707861,
    "lon": -117.157278,
    "status": "Scheduled",
    "timeTBD": false,
    "ticketUrl": "https://mlb.tickets.com/?orgid=58251&agency=MLB_MPV&pid=9657711"
  },
  {
    "id": 823205,
    "date": "2026-07-07T01:45:00Z",
    "sportId": 1,
    "league": "MLB",
    "home": "San Francisco Giants",
    "away": "Toronto Blue Jays",
    "homeId": 137,
    "awayId": 141,
    "venue": "Oracle Park",
    "city": "San Francisco",
    "state": "California",
    "lat": 37.778383,
    "lon": -122.389448,
    "status": "Scheduled",
    "timeTBD": false,
    "ticketUrl": "https://mlb.tickets.com/?agency=MLB_MPV&orgid=2139&pid=9641689"
  },
  {
    "id": 823930,
    "date": "2026-07-07T02:10:00Z",
    "sportId": 1,
    "league": "MLB",
    "home": "Los Angeles Dodgers",
    "away": "Colorado Rockies",
    "homeId": 119,
    "awayId": 115,
    "venue": "UNIQLO Field at Dodger Stadium",
    "city": "Los Angeles",
    "state": "California",
    "lat": 34.07368,
    "lon": -118.24053,
    "status": "Scheduled",
    "timeTBD": false,
    "ticketUrl": "https://mlb.tickets.com/?agency=MLB_MPV&orgid=8&pid=9694824"
  },
  {
    "id": 816331,
    "date": "2026-07-07T15:35:00Z",
    "sportId": 11,
    "league": "Triple-A",
    "home": "Lehigh Valley IronPigs",
    "away": "Columbus Clippers",
    "homeId": 1410,
    "awayId": 445,
    "venue": "Coca-Cola Park",
    "city": "Allentown",
    "state": "Pennsylvania",
    "lat": 40.6253183,
    "lon": -75.4516154,
    "status": "Scheduled",
    "timeTBD": false,
    "ticketUrl": "https://mlb.tickets.com/?agency=MILB_MPV&orgid=52489&eventId=61254"
  },
  {
    "id": 819534,
    "date": "2026-07-07T16:05:00Z",
    "sportId": 13,
    "league": "High-A",
    "home": "West Michigan Whitecaps",
    "away": "Fort Wayne TinCaps",
    "homeId": 582,
    "awayId": 584,
    "venue": "LMCU Ballpark",
    "city": "Comstock Park",
    "state": "Michigan",
    "lat": 43.040797,
    "lon": -85.65933,
    "status": "Scheduled",
    "timeTBD": false,
    "ticketUrl": "https://mlb.tickets.com/?agency=MILB_MPV&orgid=53951&pid=9638648"
  },
  {
    "id": 823062,
    "date": "2026-07-07T18:15:00Z",
    "sportId": 1,
    "league": "MLB",
    "home": "St. Louis Cardinals",
    "away": "Milwaukee Brewers",
    "homeId": 138,
    "awayId": 158,
    "venue": "Busch Stadium",
    "city": "St. Louis",
    "state": "Missouri",
    "lat": 38.62256667,
    "lon": -90.19286667,
    "status": "Scheduled",
    "timeTBD": false,
    "ticketUrl": "https://mlb.tickets.com/?orgid=10&agency=MLB_MPV&pid=9626355"
  },
  {
    "id": 818522,
    "date": "2026-07-07T22:03:00Z",
    "sportId": 12,
    "league": "Double-A",
    "home": "New Hampshire Fisher Cats",
    "away": "Portland Sea Dogs",
    "homeId": 463,
    "awayId": 546,
    "venue": "Delta Dental Stadium",
    "city": "Manchester",
    "state": "New Hampshire",
    "lat": 42.98115,
    "lon": -71.46653,
    "status": "Scheduled",
    "timeTBD": false,
    "ticketUrl": "https://mlb.tickets.com/?agency=MILB_MPV&orgid=57689&pid=9582958"
  },
  {
    "id": 818732,
    "date": "2026-07-07T22:05:00Z",
    "sportId": 12,
    "league": "Double-A",
    "home": "Erie SeaWolves",
    "away": "Harrisburg Senators",
    "homeId": 106,
    "awayId": 547,
    "venue": "UPMC Park",
    "city": "Erie",
    "state": "Pennsylvania",
    "lat": 42.12706,
    "lon": -80.0803,
    "status": "Scheduled",
    "timeTBD": false,
    "ticketUrl": "https://mlb.tickets.com/?agency=MILB_MPV&orgid=57949&eventId=2193"
  },
  {
    "id": 826786,
    "date": "2026-07-07T22:05:00Z",
    "sportId": 14,
    "league": "Single-A",
    "home": "Wilson Warbirds",
    "away": "Fayetteville Woodpeckers",
    "homeId": 249,
    "awayId": 3712,
    "venue": "Wilson Ballpark",
    "city": "Wilson",
    "state": "North Carolina",
    "lat": null,
    "lon": null,
    "status": "Scheduled",
    "timeTBD": false,
    "ticketUrl": "https://mlb.tickets.com/?agency=MILB_MPV&orgid=58449&eventid=21077"
  },
  {
    "id": 818932,
    "date": "2026-07-07T22:30:00Z",
    "sportId": 12,
    "league": "Double-A",
    "home": "Altoona Curve",
    "away": "Richmond Flying Squirrels",
    "homeId": 452,
    "awayId": 3410,
    "venue": "Peoples Natural Gas Field",
    "city": "Altoona",
    "state": "Pennsylvania",
    "lat": 40.473826,
    "lon": -78.394753,
    "status": "Scheduled",
    "timeTBD": false,
    "ticketUrl": "https://www.ticketmaster.com/event/02006437CA68E09C"
  },
  {
    "id": 822207,
    "date": "2026-07-07T22:30:00Z",
    "sportId": 13,
    "league": "High-A",
    "home": "Greensboro Grasshoppers",
    "away": "Greenville Drive",
    "homeId": 477,
    "awayId": 428,
    "venue": "First National Bank Field",
    "city": "Greensboro",
    "state": "North Carolina",
    "lat": 36.07667,
    "lon": -79.79487,
    "status": "Scheduled",
    "timeTBD": false,
    "ticketUrl": "https://www.ticketreturn.com/prod2new/Buy.asp?EventID=356706"
  },
  {
    "id": 826984,
    "date": "2026-07-07T22:30:00Z",
    "sportId": 14,
    "league": "Single-A",
    "home": "Hill City Howlers",
    "away": "Charleston RiverDogs",
    "homeId": 481,
    "awayId": 233,
    "venue": "City Stadium",
    "city": "Lynchburg",
    "state": "Virginia",
    "lat": 37.3930099,
    "lon": -79.1661,
    "status": "Scheduled",
    "timeTBD": false,
    "ticketUrl": "https://www.ticketreturn.com/prod2/Buy.asp?EventID=354206"
  },
  {
    "id": 820524,
    "date": "2026-07-07T22:30:00Z",
    "sportId": 14,
    "league": "Single-A",
    "home": "Jupiter Hammerheads",
    "away": "St. Lucie Mets",
    "homeId": 479,
    "awayId": 507,
    "venue": "Roger Dean Chevrolet Stadium",
    "city": "Jupiter",
    "state": "Florida",
    "lat": 26.890957,
    "lon": -80.116365,
    "status": "Scheduled",
    "timeTBD": false,
    "ticketUrl": "https://mlb.tickets.com/?agency=JUPV_PL_MPV&orgid=57091&pid=9680094"
  },
  {
    "id": 820661,
    "date": "2026-07-07T22:30:00Z",
    "sportId": 14,
    "league": "Single-A",
    "home": "Dunedin Blue Jays",
    "away": "Lakeland Flying Tigers",
    "homeId": 424,
    "awayId": 570,
    "venue": "TD Ballpark",
    "city": "Dunedin",
    "state": "Florida",
    "lat": 27.9745812,
    "lon": -82.7913301,
    "status": "Scheduled",
    "timeTBD": false,
    "ticketUrl": "https://am.ticketmaster.com/tbjrcminorleague/buy/ism/U0QwNzA3MjY="
  },
  {
    "id": 820262,
    "date": "2026-07-07T22:30:00Z",
    "sportId": 14,
    "league": "Single-A",
    "home": "Tampa Tarpons",
    "away": "Clearwater Threshers",
    "homeId": 587,
    "awayId": 566,
    "venue": "George M. Steinbrenner Field",
    "city": "Tampa",
    "state": "Florida",
    "lat": 27.97997,
    "lon": -82.50702,
    "status": "Scheduled",
    "timeTBD": false,
    "ticketUrl": "https://www.ticketmaster.com/event/0D00647524E4ADB0"
  },
  {
    "id": 824820,
    "date": "2026-07-07T22:35:00Z",
    "sportId": 1,
    "league": "MLB",
    "home": "Baltimore Orioles",
    "away": "Chicago Cubs",
    "homeId": 110,
    "awayId": 112,
    "venue": "Oriole Park at Camden Yards",
    "city": "Baltimore",
    "state": "Maryland",
    "lat": 39.283787,
    "lon": -76.621689,
    "status": "Scheduled",
    "timeTBD": false,
    "ticketUrl": "https://mlb.tickets.com/?agency=MLB_MPV&orgid=56069&pid=9632214"
  },
  {
    "id": 816641,
    "date": "2026-07-07T22:35:00Z",
    "sportId": 11,
    "league": "Triple-A",
    "home": "Gwinnett Stripers",
    "away": "Memphis Redbirds",
    "homeId": 431,
    "awayId": 235,
    "venue": "Gwinnett Field",
    "city": "Lawrenceville",
    "state": "Georgia",
    "lat": 34.0409586,
    "lon": -83.9937909,
    "status": "Scheduled",
    "timeTBD": false,
    "ticketUrl": "https://www.ticketmaster.com/event/0E00643DC743B072"
  },
  {
    "id": 816936,
    "date": "2026-07-07T22:35:00Z",
    "sportId": 11,
    "league": "Triple-A",
    "home": "Buffalo Bisons",
    "away": "Scranton/Wilkes-Barre RailRiders",
    "homeId": 422,
    "awayId": 531,
    "venue": "Sahlen Field",
    "city": "Buffalo",
    "state": "New York",
    "lat": 42.880772,
    "lon": -78.873955,
    "status": "Scheduled",
    "timeTBD": false,
    "ticketUrl": "https://mlb.tickets.com/?orgId=58249&agency=MILB_MPV&eventId=3126"
  },
  {
    "id": 816250,
    "date": "2026-07-07T22:35:00Z",
    "sportId": 11,
    "league": "Triple-A",
    "home": "Louisville Bats",
    "away": "Omaha Storm Chasers",
    "homeId": 416,
    "awayId": 541,
    "venue": "Louisville Slugger Field",
    "city": "Louisville",
    "state": "Kentucky",
    "lat": 38.2557199,
    "lon": -85.74479,
    "status": "Scheduled",
    "timeTBD": false,
    "ticketUrl": "https://mlb.tickets.com/?agency=MILB_MPV&orgId=57629&eventId=16224"
  },
  {
    "id": 816039,
    "date": "2026-07-07T22:35:00Z",
    "sportId": 11,
    "league": "Triple-A",
    "home": "Norfolk Tides",
    "away": "Syracuse Mets",
    "homeId": 568,
    "awayId": 552,
    "venue": "Harbor Park",
    "city": "Norfolk",
    "state": "Virginia",
    "lat": 36.84265,
    "lon": -76.27803,
    "status": "Scheduled",
    "timeTBD": false,
    "ticketUrl": "https://www.ticketmaster.com/norfolk-tides-vs-syracuse-mets-norfolk-virginia-07-07-2026/event/010062F0A89A5289"
  },
  {
    "id": 819011,
    "date": "2026-07-07T22:35:00Z",
    "sportId": 12,
    "league": "Double-A",
    "home": "Akron RubberDucks",
    "away": "Chesapeake Baysox",
    "homeId": 402,
    "awayId": 418,
    "venue": "7 17 Credit Union Park",
    "city": "Akron",
    "state": "Ohio",
    "lat": 41.07739,
    "lon": -81.52185,
    "status": "Scheduled",
    "timeTBD": false,
    "ticketUrl": "https://mlb.tickets.com/?agency=MILB_MPV&orgid=58169&pid=9633289"
  },
  {
    "id": 818248,
    "date": "2026-07-07T22:35:00Z",
    "sportId": 12,
    "league": "Double-A",
    "home": "Somerset Patriots",
    "away": "Reading Fightin Phils",
    "homeId": 1956,
    "awayId": 522,
    "venue": "TD Bank Ballpark",
    "city": "Bridgewater",
    "state": "New Jersey",
    "lat": 40.56081907,
    "lon": -74.55328462,
    "status": "Scheduled",
    "timeTBD": false,
    "ticketUrl": "https://so1.glitnirticketing.com/soticket/web/stadiumg.php?status_id=2&event_id=96"
  },
  {
    "id": 822015,
    "date": "2026-07-07T22:35:00Z",
    "sportId": 13,
    "league": "High-A",
    "home": "Hudson Valley Renegades",
    "away": "Rome Emperors",
    "homeId": 537,
    "awayId": 432,
    "venue": "Heritage Financial Park",
    "city": "Wappingers Falls",
    "state": "New York",
    "lat": 41.52638,
    "lon": -73.96109,
    "status": "Scheduled",
    "timeTBD": false,
    "ticketUrl": "https://www.ticketmaster.com/event/0000642CEE48B40D"
  },
  {
    "id": 822481,
    "date": "2026-07-07T22:35:00Z",
    "sportId": 13,
    "league": "High-A",
    "home": "Asheville Tourists",
    "away": "Winston-Salem Dash",
    "homeId": 573,
    "awayId": 580,
    "venue": "HomeTrust Park",
    "city": "Asheville",
    "state": "North Carolina",
    "lat": 35.58668,
    "lon": -82.5501,
    "status": "Scheduled",
    "timeTBD": false,
    "ticketUrl": "https://mlb.tickets.com/?orgId=56611&agency=MILB_MPV&eventId=62746"
  },
  {
    "id": 822081,
    "date": "2026-07-07T22:35:00Z",
    "sportId": 13,
    "league": "High-A",
    "home": "Hub City Spartanburgers",
    "away": "Bowling Green Hot Rods",
    "homeId": 6324,
    "awayId": 2498,
    "venue": "Fifth Third Park",
    "city": "Spartanburg",
    "state": "South Carolina",
    "lat": 34.9449402,
    "lon": -81.9359415,
    "status": "Scheduled",
    "timeTBD": false,
    "ticketUrl": "https://mlb.tickets.com/?orgid=57729&agency=MILB_MPV&eventId=14882"
  },
  {
    "id": 820726,
    "date": "2026-07-07T22:35:00Z",
    "sportId": 14,
    "league": "Single-A",
    "home": "Daytona Tortugas",
    "away": "Palm Beach Cardinals",
    "homeId": 450,
    "awayId": 279,
    "venue": "Jackie Robinson Ballpark",
    "city": "Daytona Beach",
    "state": "Florida",
    "lat": 29.20922,
    "lon": -81.01596,
    "status": "Scheduled",
    "timeTBD": false,
    "ticketUrl": "https://mlb.tickets.com/?agency=MILB_MPV&orgid=57209&pid=9599074"
  },
  {
    "id": 824254,
    "date": "2026-07-07T22:40:00Z",
    "sportId": 1,
    "league": "MLB",
    "home": "Detroit Tigers",
    "away": "Athletics",
    "homeId": 116,
    "awayId": 133,
    "venue": "Comerica Park",
    "city": "Detroit",
    "state": "Michigan",
    "lat": 42.3391151,
    "lon": -83.048695,
    "status": "Scheduled",
    "timeTBD": false,
    "ticketUrl": "https://mlb.tickets.com/?agency=MLB_MPV&orgid=28&pid=9685152"
  },
  {
    "id": 823361,
    "date": "2026-07-07T22:40:00Z",
    "sportId": 1,
    "league": "MLB",
    "home": "Pittsburgh Pirates",
    "away": "Atlanta Braves",
    "homeId": 134,
    "awayId": 144,
    "venue": "PNC Park",
    "city": "Pittsburgh",
    "state": "Pennsylvania",
    "lat": 40.446904,
    "lon": -80.005753,
    "status": "Scheduled",
    "timeTBD": false,
    "ticketUrl": "https://mlb.tickets.com/?agency=MLB_MPV&orgid=7&pid=9643591"
  },
  {
    "id": 823847,
    "date": "2026-07-07T22:40:00Z",
    "sportId": 1,
    "league": "MLB",
    "home": "Miami Marlins",
    "away": "Seattle Mariners",
    "homeId": 146,
    "awayId": 136,
    "venue": "loanDepot park",
    "city": "Miami",
    "state": "Florida",
    "lat": 25.77796236,
    "lon": -80.21951795,
    "status": "Scheduled",
    "timeTBD": false,
    "ticketUrl": "https://mlb.tickets.com/?orgid=20&agency=MLB_MPV&pid=9598925"
  },
  {
    "id": 822956,
    "date": "2026-07-07T22:40:00Z",
    "sportId": 1,
    "league": "MLB",
    "home": "Tampa Bay Rays",
    "away": "New York Yankees",
    "homeId": 139,
    "awayId": 147,
    "venue": "Tropicana Field",
    "city": "St. Petersburg",
    "state": "Florida",
    "lat": 27.767778,
    "lon": -82.6525,
    "status": "Scheduled",
    "timeTBD": false,
    "ticketUrl": "https://mlb.tickets.com/?orgid=25&agency=MLB_MPV&pid=9628356"
  },
  {
    "id": 822351,
    "date": "2026-07-07T22:40:00Z",
    "sportId": 13,
    "league": "High-A",
    "home": "Brooklyn Cyclones",
    "away": "Wilmington Blue Rocks",
    "homeId": 453,
    "awayId": 426,
    "venue": "Maimonides Park",
    "city": "Brooklyn",
    "state": "New York",
    "lat": 40.57392,
    "lon": -73.98473,
    "status": "Scheduled",
    "timeTBD": false,
    "ticketUrl": "https://mlb.tickets.com/?orgid=58029&agency=MILB_MPV&eventId=4040"
  },
  {
    "id": 822713,
    "date": "2026-07-07T22:45:00Z",
    "sportId": 1,
    "league": "MLB",
    "home": "Washington Nationals",
    "away": "Houston Astros",
    "homeId": 120,
    "awayId": 117,
    "venue": "Nationals Park",
    "city": "Washington",
    "state": "District of Columbia",
    "lat": 38.872861,
    "lon": -77.007501,
    "status": "Scheduled",
    "timeTBD": false,
    "ticketUrl": "https://mlb.tickets.com/?orgid=17&agency=MLB_MPV&pid=9656002"
  },
  {
    "id": 815508,
    "date": "2026-07-07T22:45:00Z",
    "sportId": 11,
    "league": "Triple-A",
    "home": "Worcester Red Sox",
    "away": "Rochester Red Wings",
    "homeId": 533,
    "awayId": 534,
    "venue": "Polar Park",
    "city": "Worcester",
    "state": "Massachusetts",
    "lat": 42.25606,
    "lon": -71.80028,
    "status": "Scheduled",
    "timeTBD": false,
    "ticketUrl": "https://mlb.tickets.com/?orgId=57631&agency=MILB_MPV&eventId=15192"
  },
  {
    "id": 817892,
    "date": "2026-07-07T23:00:00Z",
    "sportId": 12,
    "league": "Double-A",
    "home": "Knoxville Smokies",
    "away": "Biloxi Shuckers",
    "homeId": 553,
    "awayId": 5015,
    "venue": "Covenant Health Park",
    "city": "Knoxville",
    "state": "Tennessee",
    "lat": 35.97248459516771,
    "lon": -83.91495041686319,
    "status": "Scheduled",
    "timeTBD": false,
    "ticketUrl": "https://www.ticketmaster.com/event/1B00644B73373FD7"
  },
  {
    "id": 822280,
    "date": "2026-07-07T23:00:00Z",
    "sportId": 13,
    "league": "High-A",
    "home": "Frederick Keys",
    "away": "Jersey Shore BlueClaws",
    "homeId": 493,
    "awayId": 427,
    "venue": "Nymeo Field",
    "city": "Frederick",
    "state": "Maryland",
    "lat": null,
    "lon": null,
    "status": "Scheduled",
    "timeTBD": false,
    "ticketUrl": "https://www.ticketreturn.com/prod2/Buy.asp?EventID=355999"
  },
  {
    "id": 819865,
    "date": "2026-07-07T23:00:00Z",
    "sportId": 13,
    "league": "High-A",
    "home": "Lake County Captains",
    "away": "Lansing Lugnuts",
    "homeId": 437,
    "awayId": 499,
    "venue": "Classic Auto Group Park",
    "city": "Eastlake",
    "state": "Ohio",
    "lat": 41.6424351,
    "lon": -81.4367781,
    "status": "Scheduled",
    "timeTBD": false,
    "ticketUrl": "https://mlb.tickets.com/?orgId=57929&agency=MILB_MPV&eventId=2064"
  },
  {
    "id": 816859,
    "date": "2026-07-07T23:04:00Z",
    "sportId": 11,
    "league": "Triple-A",
    "home": "Charlotte Knights",
    "away": "Nashville Sounds",
    "homeId": 494,
    "awayId": 556,
    "venue": "Truist Field",
    "city": "Charlotte",
    "state": "North Carolina",
    "lat": 35.22781,
    "lon": -80.84823,
    "status": "Scheduled",
    "timeTBD": false,
    "ticketUrl": "https://mlb.tickets.com/?agency=MILB_MPV&orgid=57709&eventid=3434#"
  },
  {
    "id": 816563,
    "date": "2026-07-07T23:05:00Z",
    "sportId": 11,
    "league": "Triple-A",
    "home": "Indianapolis Indians",
    "away": "Toledo Mud Hens",
    "homeId": 484,
    "awayId": 512,
    "venue": "Victory Field",
    "city": "Indianapolis",
    "state": "Indiana",
    "lat": 39.7657354,
    "lon": -86.1682918,
    "status": "Scheduled",
    "timeTBD": false,
    "ticketUrl": "https://mlb.tickets.com/?orgId=54031&agency=MILB_MPV&eventId=63328#/event"
  },
  {
    "id": 816406,
    "date": "2026-07-07T23:05:00Z",
    "sportId": 11,
    "league": "Triple-A",
    "home": "Jacksonville Jumbo Shrimp",
    "away": "Durham Bulls",
    "homeId": 564,
    "awayId": 234,
    "venue": "Vystar Ballpark",
    "city": "Jacksonville",
    "state": "Florida",
    "lat": 30.32533,
    "lon": -81.64256,
    "status": "Scheduled",
    "timeTBD": false,
    "ticketUrl": "https://mlb.tickets.com/?orgId=56689&agency=MILB_MPV&eventId=61743"
  },
  {
    "id": 817768,
    "date": "2026-07-07T23:05:00Z",
    "sportId": 12,
    "league": "Double-A",
    "home": "Pensacola Blue Wahoos",
    "away": "Montgomery Biscuits",
    "homeId": 4124,
    "awayId": 421,
    "venue": "Blue Wahoos Stadium",
    "city": "Pensacola",
    "state": "Florida",
    "lat": 30.4048409,
    "lon": -87.2188349,
    "status": "Scheduled",
    "timeTBD": false,
    "ticketUrl": "https://mlb.tickets.com/?orgId=53713&agency=MILB_MPV&eventId=28039"
  },
  {
    "id": 819929,
    "date": "2026-07-07T23:05:00Z",
    "sportId": 13,
    "league": "High-A",
    "home": "Great Lakes Loons",
    "away": "Dayton Dragons",
    "homeId": 456,
    "awayId": 459,
    "venue": "Dow Diamond",
    "city": "Midland",
    "state": "Michigan",
    "lat": 43.6089355,
    "lon": -84.2397878,
    "status": "Scheduled",
    "timeTBD": false,
    "ticketUrl": "https://mlb.tickets.com/?agency=MILB_MPV&orgId=54391&eventId=60974"
  },
  {
    "id": 827522,
    "date": "2026-07-07T23:05:00Z",
    "sportId": 14,
    "league": "Single-A",
    "home": "Augusta GreenJackets",
    "away": "Hickory Crawdads",
    "homeId": 478,
    "awayId": 448,
    "venue": "SRP Park",
    "city": "North Augusta",
    "state": "South Carolina",
    "lat": 33.4844619,
    "lon": -81.9764372,
    "status": "Scheduled",
    "timeTBD": false,
    "ticketUrl": "https://mlb.tickets.com/?agency=MILB_MPV&orgid=56771&eventid=16620#"
  },
  {
    "id": 826924,
    "date": "2026-07-07T23:05:00Z",
    "sportId": 14,
    "league": "Single-A",
    "home": "Myrtle Beach Pelicans",
    "away": "Fredericksburg Nationals",
    "homeId": 521,
    "awayId": 436,
    "venue": "Pelicans Ballpark",
    "city": "Myrtle Beach",
    "state": "South Carolina",
    "lat": 33.711404,
    "lon": -78.88444,
    "status": "Scheduled",
    "timeTBD": false,
    "ticketUrl": "https://mlb.tickets.com/?orgId=57329&agency=MILB_MPV&eventId=63094"
  },
  {
    "id": 827314,
    "date": "2026-07-07T23:05:00Z",
    "sportId": 14,
    "league": "Single-A",
    "home": "Delmarva Shorebirds",
    "away": "Kannapolis Cannon Ballers",
    "homeId": 548,
    "awayId": 487,
    "venue": "Arthur W. Perdue Stadium",
    "city": "Salisbury",
    "state": "Maryland",
    "lat": 38.369979,
    "lon": -75.530656,
    "status": "Scheduled",
    "timeTBD": false,
    "ticketUrl": "https://mlb.tickets.com/?agency=MILB_MPV&orgid=56089&eventId=62598#/"
  },
  {
    "id": 820595,
    "date": "2026-07-07T23:05:00Z",
    "sportId": 14,
    "league": "Single-A",
    "home": "Fort Myers Mighty Mussels",
    "away": "Bradenton Marauders",
    "homeId": 509,
    "awayId": 3390,
    "venue": "Lee Health Sports Complex",
    "city": "Fort Myers",
    "state": "Florida",
    "lat": 26.537803,
    "lon": -81.841973,
    "status": "Scheduled",
    "timeTBD": false,
    "ticketUrl": "https://mlb.tickets.com/?orgId=55029&agency=MILB_MPV&eventId=65058"
  },
  {
    "id": 827396,
    "date": "2026-07-07T23:05:00Z",
    "sportId": 14,
    "league": "Single-A",
    "home": "Columbia Fireflies",
    "away": "Salem RidgeYaks",
    "homeId": 3705,
    "awayId": 414,
    "venue": "Segra Park",
    "city": "Columbia",
    "state": "South Carolina",
    "lat": 34.018317,
    "lon": -81.030958,
    "status": "Scheduled",
    "timeTBD": false,
    "ticketUrl": "https://mlb.tickets.com/?orgId=57151&agency=MILB_MPV&eventId=63370"
  },
  {
    "id": 817976,
    "date": "2026-07-07T23:06:00Z",
    "sportId": 12,
    "league": "Double-A",
    "home": "Columbus Clingstones",
    "away": "Birmingham Barons",
    "homeId": 6325,
    "awayId": 247,
    "venue": "Synovus Park",
    "city": "Columbus",
    "state": "Georgia",
    "lat": 32.4523727,
    "lon": -84.9939591,
    "status": "Scheduled",
    "timeTBD": false,
    "ticketUrl": "https://mlb.tickets.com/?agency=MILB_MPV&orgid=57769&eventid=5162"
  },
  {
    "id": 823607,
    "date": "2026-07-07T23:10:00Z",
    "sportId": 1,
    "league": "MLB",
    "home": "New York Mets",
    "away": "Kansas City Royals",
    "homeId": 121,
    "awayId": 118,
    "venue": "Citi Field",
    "city": "Flushing",
    "state": "New York",
    "lat": 40.75753012,
    "lon": -73.84559155,
    "status": "Scheduled",
    "timeTBD": false,
    "ticketUrl": "https://mlb.tickets.com/?agency=MLB_MPV&orgid=38129&pid=9682388"
  },
  {
    "id": 824495,
    "date": "2026-07-07T23:10:00Z",
    "sportId": 1,
    "league": "MLB",
    "home": "Cincinnati Reds",
    "away": "Philadelphia Phillies",
    "homeId": 113,
    "awayId": 143,
    "venue": "Great American Ball Park",
    "city": "Cincinnati",
    "state": "Ohio",
    "lat": 39.097389,
    "lon": -84.506611,
    "status": "Scheduled",
    "timeTBD": false,
    "ticketUrl": "http://mlb.tickets.com?orgid=6&agency=MLB_MPV&pid=9589280"
  },
  {
    "id": 818597,
    "date": "2026-07-07T23:10:00Z",
    "sportId": 12,
    "league": "Double-A",
    "home": "Hartford Yard Goats",
    "away": "Binghamton Rumble Ponies",
    "homeId": 538,
    "awayId": 505,
    "venue": "Dunkin' Park",
    "city": "Hartford",
    "state": "Connecticut",
    "lat": 41.77079,
    "lon": -72.6743078,
    "status": "Scheduled",
    "timeTBD": false,
    "ticketUrl": "https://mlb.tickets.com/?orgId=56009&agency=MILB_MPV&eventId=60576"
  },
  {
    "id": 817349,
    "date": "2026-07-07T23:30:00Z",
    "sportId": 12,
    "league": "Double-A",
    "home": "Midland RockHounds",
    "away": "San Antonio Missions",
    "homeId": 237,
    "awayId": 510,
    "venue": "Momentum Bank Ballpark",
    "city": "Midland",
    "state": "Texas",
    "lat": 31.98835,
    "lon": -102.15482,
    "status": "Scheduled",
    "timeTBD": false,
    "ticketUrl": "https://mlb.tickets.com/?agency=MILB_MPV&orgId=56877&eventId=15610"
  },
  {
    "id": 819662,
    "date": "2026-07-07T23:30:00Z",
    "sportId": 13,
    "league": "High-A",
    "home": "Quad Cities River Bandits",
    "away": "Peoria Chiefs",
    "homeId": 565,
    "awayId": 443,
    "venue": "Modern Woodmen Park",
    "city": "Davenport",
    "state": "Iowa",
    "lat": 41.51868,
    "lon": -90.58187,
    "status": "Scheduled",
    "timeTBD": false,
    "ticketUrl": "https://uw1.glitnirticketing.com/uwticket/web/stadiumg.php?status_id=2&event_id=165"
  },
  {
    "id": 817486,
    "date": "2026-07-07T23:35:00Z",
    "sportId": 12,
    "league": "Double-A",
    "home": "Corpus Christi Hooks",
    "away": "Frisco RoughRiders",
    "homeId": 482,
    "awayId": 540,
    "venue": "Whataburger Field",
    "city": "Corpus Christi",
    "state": "Texas",
    "lat": 27.80995,
    "lon": -97.39941,
    "status": "Scheduled",
    "timeTBD": false,
    "ticketUrl": "https://mlb.tickets.com/?orgId=58671&agency=MILB_MPV&eventId=6706"
  },
  {
    "id": 817699,
    "date": "2026-07-07T23:35:00Z",
    "sportId": 12,
    "league": "Double-A",
    "home": "Rocket City Trash Pandas",
    "away": "Chattanooga Lookouts",
    "homeId": 559,
    "awayId": 498,
    "venue": "Toyota Field",
    "city": "Madison",
    "state": "Alabama",
    "lat": 34.6837403,
    "lon": -86.7274237,
    "status": "Scheduled",
    "timeTBD": false,
    "ticketUrl": "https://mlb.tickets.com/?agency=MILB_MPV&orgid=54449&eventID=26773#"
  },
  {
    "id": 820128,
    "date": "2026-07-07T23:35:00Z",
    "sportId": 13,
    "league": "High-A",
    "home": "Cedar Rapids Kernels",
    "away": "South Bend Cubs",
    "homeId": 492,
    "awayId": 550,
    "venue": "Veterans Memorial Stadium",
    "city": "Cedar Rapids",
    "state": "Iowa",
    "lat": 41.96785,
    "lon": -91.68662,
    "status": "Scheduled",
    "timeTBD": false,
    "ticketUrl": "https://www.ticketreturn.com/prod2new/BuyNew.asp?EventID=358084#"
  },
  {
    "id": 816483,
    "date": "2026-07-07T23:38:00Z",
    "sportId": 11,
    "league": "Triple-A",
    "home": "Iowa Cubs",
    "away": "St. Paul Saints",
    "homeId": 451,
    "awayId": 1960,
    "venue": "Principal Park",
    "city": "Des Moines",
    "state": "Iowa",
    "lat": 41.57998,
    "lon": -93.61619,
    "status": "Scheduled",
    "timeTBD": false,
    "ticketUrl": "https://mlb.tickets.com/?orgId=56737&agency=MILB_MPV&eventId=17957"
  },
  {
    "id": 823687,
    "date": "2026-07-07T23:40:00Z",
    "sportId": 1,
    "league": "MLB",
    "home": "Minnesota Twins",
    "away": "Cleveland Guardians",
    "homeId": 142,
    "awayId": 114,
    "venue": "Target Field",
    "city": "Minneapolis",
    "state": "Minnesota",
    "lat": 44.981829,
    "lon": -93.277891,
    "status": "Scheduled",
    "timeTBD": false,
    "ticketUrl": "https://mlb.tickets.com/?agency=MLB_MPV&orgid=9&pid=9651274"
  },
  {
    "id": 824579,
    "date": "2026-07-07T23:40:00Z",
    "sportId": 1,
    "league": "MLB",
    "home": "Chicago White Sox",
    "away": "Boston Red Sox",
    "homeId": 145,
    "awayId": 111,
    "venue": "Rate Field",
    "city": "Chicago",
    "state": "Illinois",
    "lat": 41.83,
    "lon": -87.634167,
    "status": "Scheduled",
    "timeTBD": false,
    "ticketUrl": "https://www.ticketmaster.com/event/04006356AD0F525C"
  },
  {
    "id": 819469,
    "date": "2026-07-07T23:40:00Z",
    "sportId": 13,
    "league": "High-A",
    "home": "Wisconsin Timber Rattlers",
    "away": "Beloit Sky Carp",
    "homeId": 572,
    "awayId": 554,
    "venue": "Neuroscience Group Field",
    "city": "Appleton",
    "state": "Wisconsin",
    "lat": 44.282871,
    "lon": -88.469427,
    "status": "Scheduled",
    "timeTBD": false,
    "ticketUrl": "https://mlb.tickets.com/?agency=MILB_MPV&orgid=58269&mkt_code=WTRWEB&eventId=3117"
  },
  {
    "id": 823035,
    "date": "2026-07-07T23:45:00Z",
    "sportId": 1,
    "league": "MLB",
    "home": "St. Louis Cardinals",
    "away": "Milwaukee Brewers",
    "homeId": 138,
    "awayId": 158,
    "venue": "Busch Stadium",
    "city": "St. Louis",
    "state": "Missouri",
    "lat": 38.62256667,
    "lon": -90.19286667,
    "status": "Scheduled",
    "timeTBD": false,
    "ticketUrl": "https://mlb.tickets.com/?orgid=10&agency=MLB_MPV&pid=9626362"
  },
  {
    "id": 817073,
    "date": "2026-07-08T00:00:00Z",
    "sportId": 12,
    "league": "Double-A",
    "home": "Tulsa Drillers",
    "away": "Springfield Cardinals",
    "homeId": 260,
    "awayId": 440,
    "venue": "ONEOK Field",
    "city": "Tulsa",
    "state": "Oklahoma",
    "lat": 36.1601215,
    "lon": -95.9888782,
    "status": "Scheduled",
    "timeTBD": false,
    "ticketUrl": "https://mlb.tickets.com/?orgId=57369&agency=MILB_MPV&eventId=17033"
  },
  {
    "id": 822881,
    "date": "2026-07-08T00:05:00Z",
    "sportId": 1,
    "league": "MLB",
    "home": "Texas Rangers",
    "away": "Los Angeles Angels",
    "homeId": 140,
    "awayId": 108,
    "venue": "Globe Life Field",
    "city": "Arlington",
    "state": "Texas",
    "lat": 32.747299,
    "lon": -97.081818,
    "status": "Scheduled",
    "timeTBD": false,
    "ticketUrl": "https://mlb.tickets.com/?agency=MLB_MPV&orgid=3&pid=9646995"
  },
  {
    "id": 815206,
    "date": "2026-07-08T00:05:00Z",
    "sportId": 11,
    "league": "Triple-A",
    "home": "Oklahoma City Comets",
    "away": "El Paso Chihuahuas",
    "homeId": 238,
    "awayId": 4904,
    "venue": "Chickasaw Bricktown Ballpark",
    "city": "Oklahoma City",
    "state": "Oklahoma",
    "lat": 35.46511,
    "lon": -97.50762,
    "status": "Scheduled",
    "timeTBD": false,
    "ticketUrl": "https://www.ticketmaster.com/oklahoma-city-comets-vs-el-paso-oklahoma-city-oklahoma-07-07-2026/event/0C006445ED81D17C"
  },
  {
    "id": 814834,
    "date": "2026-07-08T00:05:00Z",
    "sportId": 11,
    "league": "Triple-A",
    "home": "Sugar Land Space Cowboys",
    "away": "Albuquerque Isotopes",
    "homeId": 5434,
    "awayId": 342,
    "venue": "Constellation Field",
    "city": "Sugar Land",
    "state": "Texas",
    "lat": 29.62275645,
    "lon": -95.64718344,
    "status": "Scheduled",
    "timeTBD": false,
    "ticketUrl": "https://mlb.tickets.com/?agency=MILB_MPV&orgid=58649&eventId=6812&mkt_code=SLS_WEB#"
  },
  {
    "id": 817630,
    "date": "2026-07-08T00:05:00Z",
    "sportId": 12,
    "league": "Double-A",
    "home": "Amarillo Sod Poodles",
    "away": "Arkansas Travelers",
    "homeId": 5368,
    "awayId": 574,
    "venue": "Hodgetown",
    "city": "Amarillo",
    "state": "Texas",
    "lat": 35.2050189,
    "lon": -101.8339567,
    "status": "Scheduled",
    "timeTBD": false,
    "ticketUrl": "https://mlb.tickets.com/?agency=MILB_MPV&orgid=53388&eventId=27907#"
  },
  {
    "id": 817009,
    "date": "2026-07-08T00:05:00Z",
    "sportId": 12,
    "league": "Double-A",
    "home": "Wichita Wind Surge",
    "away": "Northwest Arkansas Naturals",
    "homeId": 3898,
    "awayId": 1350,
    "venue": "Equity Bank Park",
    "city": "Wichita",
    "state": "Kansas",
    "lat": 37.6813367,
    "lon": -97.3475531,
    "status": "Scheduled",
    "timeTBD": false,
    "ticketUrl": "https://mlb.tickets.com/?agency=MILB_MPV&orgid=56869&eventID=14569#"
  },
  {
    "id": 821121,
    "date": "2026-07-08T01:30:00Z",
    "sportId": 14,
    "league": "Single-A",
    "home": "Rancho Cucamonga Quakes",
    "away": "Lake Elsinore Storm",
    "homeId": 526,
    "awayId": 103,
    "venue": "Morongo Field",
    "city": "Rancho Cucamonga",
    "state": "California",
    "lat": 34.102721,
    "lon": -117.54792,
    "status": "Scheduled",
    "timeTBD": false,
    "ticketUrl": "https://mlb.tickets.com/?orgId=58309&agency=MILB_MPV&eventId=4338"
  },
  {
    "id": 815133,
    "date": "2026-07-08T01:35:00Z",
    "sportId": 11,
    "league": "Triple-A",
    "home": "Reno Aces",
    "away": "Round Rock Express",
    "homeId": 2310,
    "awayId": 102,
    "venue": "Greater Nevada Field",
    "city": "Reno",
    "state": "Nevada",
    "lat": 39.52812,
    "lon": -119.80901,
    "status": "Scheduled",
    "timeTBD": false,
    "ticketUrl": "https://mlb.tickets.com/?orgId=53072&agency=MILB_MPV&eventId=18865"
  },
  {
    "id": 819401,
    "date": "2026-07-08T01:35:00Z",
    "sportId": 13,
    "league": "High-A",
    "home": "Eugene Emeralds",
    "away": "Spokane Indians",
    "homeId": 461,
    "awayId": 486,
    "venue": "PK Park",
    "city": "Eugene",
    "state": "Oregon",
    "lat": 44.059012,
    "lon": -123.065482,
    "status": "Scheduled",
    "timeTBD": false,
    "ticketUrl": "https://mlb.tickets.com/?orgId=54053&agency=MILB_MPV&eventId=18995"
  },
  {
    "id": 820924,
    "date": "2026-07-08T01:35:00Z",
    "sportId": 14,
    "league": "Single-A",
    "home": "Visalia Rawhide",
    "away": "San Jose Giants",
    "homeId": 516,
    "awayId": 476,
    "venue": "Valley Strong Ballpark",
    "city": "Visalia",
    "state": "California",
    "lat": 36.3320197,
    "lon": -119.3053325,
    "status": "Scheduled",
    "timeTBD": false,
    "ticketUrl": "https://www.ticketreturn.com/prod2new/BuyNew.asp?EventID=355428"
  },
  {
    "id": 821188,
    "date": "2026-07-08T01:35:00Z",
    "sportId": 14,
    "league": "Single-A",
    "home": "Ontario Tower Buzzers",
    "away": "Inland Empire 66ers",
    "homeId": 6482,
    "awayId": 401,
    "venue": "ONT Field",
    "city": "Ontario",
    "state": "California",
    "lat": 34.0184639834586,
    "lon": -117.60331808557788,
    "status": "Scheduled",
    "timeTBD": false,
    "ticketUrl": "https://mlb.tickets.com/?orgId=58349&agency=MILB_MPV&eventId=6264"
  },
  {
    "id": 823280,
    "date": "2026-07-08T01:40:00Z",
    "sportId": 1,
    "league": "MLB",
    "home": "San Diego Padres",
    "away": "Arizona Diamondbacks",
    "homeId": 135,
    "awayId": 109,
    "venue": "Petco Park",
    "city": "San Diego",
    "state": "California",
    "lat": 32.707861,
    "lon": -117.157278,
    "status": "Scheduled",
    "timeTBD": false,
    "ticketUrl": "https://mlb.tickets.com/?orgid=58251&agency=MLB_MPV&pid=9657712"
  },
  {
    "id": 823203,
    "date": "2026-07-08T01:45:00Z",
    "sportId": 1,
    "league": "MLB",
    "home": "San Francisco Giants",
    "away": "Toronto Blue Jays",
    "homeId": 137,
    "awayId": 141,
    "venue": "Oracle Park",
    "city": "San Francisco",
    "state": "California",
    "lat": 37.778383,
    "lon": -122.389448,
    "status": "Scheduled",
    "timeTBD": false,
    "ticketUrl": "https://mlb.tickets.com/?agency=MLB_MPV&orgid=2139&pid=9641690"
  },
  {
    "id": 814987,
    "date": "2026-07-08T01:45:00Z",
    "sportId": 11,
    "league": "Triple-A",
    "home": "Sacramento River Cats",
    "away": "Salt Lake Bees",
    "homeId": 105,
    "awayId": 561,
    "venue": "Sutter Health Park",
    "city": "Sacramento",
    "state": "California",
    "lat": 38.57994,
    "lon": -121.51246,
    "status": "Scheduled",
    "timeTBD": false,
    "ticketUrl": "http://www.ticketmaster.com/event/1C006434F5BCF896"
  },
  {
    "id": 815290,
    "date": "2026-07-08T02:05:00Z",
    "sportId": 11,
    "league": "Triple-A",
    "home": "Las Vegas Aviators",
    "away": "Tacoma Rainiers",
    "homeId": 400,
    "awayId": 529,
    "venue": "Las Vegas Ballpark",
    "city": "Las Vegas",
    "state": "Nevada",
    "lat": 36.152607,
    "lon": -115.329888,
    "status": "Scheduled",
    "timeTBD": false,
    "ticketUrl": "https://www.ticketmaster.com/event/1700636BF8D819DC"
  },
  {
    "id": 819067,
    "date": "2026-07-08T02:05:00Z",
    "sportId": 13,
    "league": "High-A",
    "home": "Vancouver Canadians",
    "away": "Everett AquaSox",
    "homeId": 435,
    "awayId": 403,
    "venue": "Rogers Field at Nat Bailey Stadium",
    "city": "Vancouver",
    "state": "British Columbia",
    "lat": 49.2431966,
    "lon": -123.1054384,
    "status": "Scheduled",
    "timeTBD": false,
    "ticketUrl": "https://mlb.tickets.com/?agency=MILB_MPV&orgid=57029&eventID=16138"
  },
  {
    "id": 819133,
    "date": "2026-07-08T02:05:00Z",
    "sportId": 13,
    "league": "High-A",
    "home": "Tri-City Dust Devils",
    "away": "Hillsboro Hops",
    "homeId": 460,
    "awayId": 419,
    "venue": "Gesa Stadium",
    "city": "Pasco",
    "state": "Washington",
    "lat": 46.27032,
    "lon": -119.17079,
    "status": "Scheduled",
    "timeTBD": false,
    "ticketUrl": "https://mlb.tickets.com/?orgId=58369&agency=MILB_MPV&eventId=4766"
  },
  {
    "id": 820984,
    "date": "2026-07-08T02:05:00Z",
    "sportId": 14,
    "league": "Single-A",
    "home": "Stockton Ports",
    "away": "Fresno Grizzlies",
    "homeId": 524,
    "awayId": 259,
    "venue": "Banner Island Ballpark",
    "city": "Stockton",
    "state": "California",
    "lat": 37.954863,
    "lon": -121.297357,
    "status": "Scheduled",
    "timeTBD": false,
    "ticketUrl": "https://mlb.tickets.com/?orgId=56609&agency=MILB_MPV&eventId=18482#"
  },
  {
    "id": 823929,
    "date": "2026-07-08T02:10:00Z",
    "sportId": 1,
    "league": "MLB",
    "home": "Los Angeles Dodgers",
    "away": "Colorado Rockies",
    "homeId": 119,
    "awayId": 115,
    "venue": "UNIQLO Field at Dodger Stadium",
    "city": "Los Angeles",
    "state": "California",
    "lat": 34.07368,
    "lon": -118.24053,
    "status": "Scheduled",
    "timeTBD": false,
    "ticketUrl": "https://mlb.tickets.com/?agency=MLB_MPV&orgid=8&pid=9694825"
  },
  {
    "id": 826785,
    "date": "2026-07-08T15:05:00Z",
    "sportId": 14,
    "league": "Single-A",
    "home": "Wilson Warbirds",
    "away": "Fayetteville Woodpeckers",
    "homeId": 249,
    "awayId": 3712,
    "venue": "Wilson Ballpark",
    "city": "Wilson",
    "state": "North Carolina",
    "lat": null,
    "lon": null,
    "status": "Scheduled",
    "timeTBD": false,
    "ticketUrl": "https://mlb.tickets.com/?agency=MILB_MPV&orgid=58449&eventid=21078"
  },
  {
    "id": 822212,
    "date": "2026-07-08T16:00:00Z",
    "sportId": 13,
    "league": "High-A",
    "home": "Greensboro Grasshoppers",
    "away": "Greenville Drive",
    "homeId": 477,
    "awayId": 428,
    "venue": "First National Bank Field",
    "city": "Greensboro",
    "state": "North Carolina",
    "lat": 36.07667,
    "lon": -79.79487,
    "status": "Scheduled",
    "timeTBD": false,
    "ticketUrl": "https://www.ticketreturn.com/prod2new/Buy.asp?EventID=356707"
  },
  {
    "id": 818244,
    "date": "2026-07-08T16:05:00Z",
    "sportId": 12,
    "league": "Double-A",
    "home": "Somerset Patriots",
    "away": "Reading Fightin Phils",
    "homeId": 1956,
    "awayId": 522,
    "venue": "TD Bank Ballpark",
    "city": "Bridgewater",
    "state": "New Jersey",
    "lat": 40.56081907,
    "lon": -74.55328462,
    "status": "Scheduled",
    "timeTBD": false,
    "ticketUrl": "https://so1.glitnirticketing.com/soticket/web/stadiumg.php?status_id=2&event_id=75"
  },
  {
    "id": 818728,
    "date": "2026-07-08T16:35:00Z",
    "sportId": 12,
    "league": "Double-A",
    "home": "Erie SeaWolves",
    "away": "Harrisburg Senators",
    "homeId": 106,
    "awayId": 547,
    "venue": "UPMC Park",
    "city": "Erie",
    "state": "Pennsylvania",
    "lat": 42.12706,
    "lon": -80.0803,
    "status": "Scheduled",
    "timeTBD": false,
    "ticketUrl": "https://mlb.tickets.com/?agency=MILB_MPV&orgid=57949&eventId=2194"
  },
  {
    "id": 820126,
    "date": "2026-07-08T17:05:00Z",
    "sportId": 13,
    "league": "High-A",
    "home": "Cedar Rapids Kernels",
    "away": "South Bend Cubs",
    "homeId": 492,
    "awayId": 550,
    "venue": "Veterans Memorial Stadium",
    "city": "Cedar Rapids",
    "state": "Iowa",
    "lat": 41.96785,
    "lon": -91.68662,
    "status": "Scheduled",
    "timeTBD": false,
    "ticketUrl": "https://www.ticketreturn.com/prod2new/BuyNew.asp?EventID=358085#"
  },
  {
    "id": 816480,
    "date": "2026-07-08T17:08:00Z",
    "sportId": 11,
    "league": "Triple-A",
    "home": "Iowa Cubs",
    "away": "St. Paul Saints",
    "homeId": 451,
    "awayId": 1960,
    "venue": "Principal Park",
    "city": "Des Moines",
    "state": "Iowa",
    "lat": 41.57998,
    "lon": -93.61619,
    "status": "Scheduled",
    "timeTBD": false,
    "ticketUrl": "https://mlb.tickets.com/?orgId=56737&agency=MILB_MPV&eventId=17958"
  },
  {
    "id": 819470,
    "date": "2026-07-08T17:10:00Z",
    "sportId": 13,
    "league": "High-A",
    "home": "Wisconsin Timber Rattlers",
    "away": "Beloit Sky Carp",
    "homeId": 572,
    "awayId": 554,
    "venue": "Neuroscience Group Field",
    "city": "Appleton",
    "state": "Wisconsin",
    "lat": 44.282871,
    "lon": -88.469427,
    "status": "Scheduled",
    "timeTBD": false,
    "ticketUrl": "https://mlb.tickets.com/?agency=MILB_MPV&orgid=58269&mkt_code=WTRWEB&eventId=3118"
  },
  {
    "id": 815126,
    "date": "2026-07-08T19:05:00Z",
    "sportId": 11,
    "league": "Triple-A",
    "home": "Reno Aces",
    "away": "Round Rock Express",
    "homeId": 2310,
    "awayId": 102,
    "venue": "Greater Nevada Field",
    "city": "Reno",
    "state": "Nevada",
    "lat": 39.52812,
    "lon": -119.80901,
    "status": "Scheduled",
    "timeTBD": false,
    "ticketUrl": "https://mlb.tickets.com/?orgId=53072&agency=MILB_MPV&eventId=18866"
  },
  {
    "id": 823202,
    "date": "2026-07-08T19:45:00Z",
    "sportId": 1,
    "league": "MLB",
    "home": "San Francisco Giants",
    "away": "Toronto Blue Jays",
    "homeId": 137,
    "awayId": 141,
    "venue": "Oracle Park",
    "city": "San Francisco",
    "state": "California",
    "lat": 37.778383,
    "lon": -122.389448,
    "status": "Scheduled",
    "timeTBD": false,
    "ticketUrl": "https://mlb.tickets.com/?agency=MLB_MPV&orgid=2139&pid=9641691"
  },
  {
    "id": 820260,
    "date": "2026-07-08T21:00:00Z",
    "sportId": 14,
    "league": "Single-A",
    "home": "Tampa Tarpons",
    "away": "Clearwater Threshers",
    "homeId": 587,
    "awayId": 566,
    "venue": "George M. Steinbrenner Field",
    "city": "Tampa",
    "state": "Florida",
    "lat": 27.97997,
    "lon": -82.50702,
    "status": "Scheduled",
    "timeTBD": false,
    "ticketUrl": "https://www.ticketmaster.com/event/0D00647524E8ADB7"
  },
  {
    "id": 818938,
    "date": "2026-07-08T22:00:00Z",
    "sportId": 12,
    "league": "Double-A",
    "home": "Altoona Curve",
    "away": "Richmond Flying Squirrels",
    "homeId": 452,
    "awayId": 3410,
    "venue": "Peoples Natural Gas Field",
    "city": "Altoona",
    "state": "Pennsylvania",
    "lat": 40.473826,
    "lon": -78.394753,
    "status": "Scheduled",
    "timeTBD": false,
    "ticketUrl": "https://www.ticketmaster.com/event/02006437CA6CE0A2"
  },
  {
    "id": 818525,
    "date": "2026-07-08T22:03:00Z",
    "sportId": 12,
    "league": "Double-A",
    "home": "New Hampshire Fisher Cats",
    "away": "Portland Sea Dogs",
    "homeId": 463,
    "awayId": 546,
    "venue": "Delta Dental Stadium",
    "city": "Manchester",
    "state": "New Hampshire",
    "lat": 42.98115,
    "lon": -71.46653,
    "status": "Scheduled",
    "timeTBD": false,
    "ticketUrl": "https://mlb.tickets.com/?agency=MILB_MPV&orgid=57689&pid=9582959"
  },
  {
    "id": 826983,
    "date": "2026-07-08T22:30:00Z",
    "sportId": 14,
    "league": "Single-A",
    "home": "Hill City Howlers",
    "away": "Charleston RiverDogs",
    "homeId": 481,
    "awayId": 233,
    "venue": "City Stadium",
    "city": "Lynchburg",
    "state": "Virginia",
    "lat": 37.3930099,
    "lon": -79.1661,
    "status": "Scheduled",
    "timeTBD": false,
    "ticketUrl": "https://www.ticketreturn.com/prod2/Buy.asp?EventID=354207"
  },
  {
    "id": 820519,
    "date": "2026-07-08T22:30:00Z",
    "sportId": 14,
    "league": "Single-A",
    "home": "Jupiter Hammerheads",
    "away": "St. Lucie Mets",
    "homeId": 479,
    "awayId": 507,
    "venue": "Roger Dean Chevrolet Stadium",
    "city": "Jupiter",
    "state": "Florida",
    "lat": 26.890957,
    "lon": -80.116365,
    "status": "Scheduled",
    "timeTBD": false,
    "ticketUrl": "https://mlb.tickets.com/?agency=JUPV_PL_MPV&orgid=57091&pid=9680095"
  },
  {
    "id": 820662,
    "date": "2026-07-08T22:30:00Z",
    "sportId": 14,
    "league": "Single-A",
    "home": "Dunedin Blue Jays",
    "away": "Lakeland Flying Tigers",
    "homeId": 424,
    "awayId": 570,
    "venue": "TD Ballpark",
    "city": "Dunedin",
    "state": "Florida",
    "lat": 27.9745812,
    "lon": -82.7913301,
    "status": "Scheduled",
    "timeTBD": false,
    "ticketUrl": "https://am.ticketmaster.com/tbjrcminorleague/buy/ism/U0QwNzA4MjY="
  },
  {
    "id": 824815,
    "date": "2026-07-08T22:35:00Z",
    "sportId": 1,
    "league": "MLB",
    "home": "Baltimore Orioles",
    "away": "Chicago Cubs",
    "homeId": 110,
    "awayId": 112,
    "venue": "Oriole Park at Camden Yards",
    "city": "Baltimore",
    "state": "Maryland",
    "lat": 39.283787,
    "lon": -76.621689,
    "status": "Scheduled",
    "timeTBD": false,
    "ticketUrl": "https://mlb.tickets.com/?agency=MLB_MPV&orgid=56069&pid=9632215"
  },
  {
    "id": 816629,
    "date": "2026-07-08T22:35:00Z",
    "sportId": 11,
    "league": "Triple-A",
    "home": "Gwinnett Stripers",
    "away": "Memphis Redbirds",
    "homeId": 431,
    "awayId": 235,
    "venue": "Gwinnett Field",
    "city": "Lawrenceville",
    "state": "Georgia",
    "lat": 34.0409586,
    "lon": -83.9937909,
    "status": "Scheduled",
    "timeTBD": false,
    "ticketUrl": "https://www.ticketmaster.com/event/0E00643DC747B07A"
  },
  {
    "id": 816937,
    "date": "2026-07-08T22:35:00Z",
    "sportId": 11,
    "league": "Triple-A",
    "home": "Buffalo Bisons",
    "away": "Scranton/Wilkes-Barre RailRiders",
    "homeId": 422,
    "awayId": 531,
    "venue": "Sahlen Field",
    "city": "Buffalo",
    "state": "New York",
    "lat": 42.880772,
    "lon": -78.873955,
    "status": "Scheduled",
    "timeTBD": false,
    "ticketUrl": "https://mlb.tickets.com/?orgId=58249&agency=MILB_MPV&eventId=3127"
  },
  {
    "id": 816255,
    "date": "2026-07-08T22:35:00Z",
    "sportId": 11,
    "league": "Triple-A",
    "home": "Louisville Bats",
    "away": "Omaha Storm Chasers",
    "homeId": 416,
    "awayId": 541,
    "venue": "Louisville Slugger Field",
    "city": "Louisville",
    "state": "Kentucky",
    "lat": 38.2557199,
    "lon": -85.74479,
    "status": "Scheduled",
    "timeTBD": false,
    "ticketUrl": "https://mlb.tickets.com/?agency=MILB_MPV&orgId=57629&eventId=16227"
  },
  {
    "id": 816035,
    "date": "2026-07-08T22:35:00Z",
    "sportId": 11,
    "league": "Triple-A",
    "home": "Norfolk Tides",
    "away": "Syracuse Mets",
    "homeId": 568,
    "awayId": 552,
    "venue": "Harbor Park",
    "city": "Norfolk",
    "state": "Virginia",
    "lat": 36.84265,
    "lon": -76.27803,
    "status": "Scheduled",
    "timeTBD": false,
    "ticketUrl": "https://www.ticketmaster.com/norfolk-tides-vs-syracuse-mets-norfolk-virginia-07-08-2026/event/010062F0A89C52D9"
  },
  {
    "id": 819012,
    "date": "2026-07-08T22:35:00Z",
    "sportId": 12,
    "league": "Double-A",
    "home": "Akron RubberDucks",
    "away": "Chesapeake Baysox",
    "homeId": 402,
    "awayId": 418,
    "venue": "7 17 Credit Union Park",
    "city": "Akron",
    "state": "Ohio",
    "lat": 41.07739,
    "lon": -81.52185,
    "status": "Scheduled",
    "timeTBD": false,
    "ticketUrl": "https://mlb.tickets.com/?agency=MILB_MPV&orgid=58169&pid=9633290"
  },
  {
    "id": 822013,
    "date": "2026-07-08T22:35:00Z",
    "sportId": 13,
    "league": "High-A",
    "home": "Hudson Valley Renegades",
    "away": "Rome Emperors",
    "homeId": 537,
    "awayId": 432,
    "venue": "Heritage Financial Park",
    "city": "Wappingers Falls",
    "state": "New York",
    "lat": 41.52638,
    "lon": -73.96109,
    "status": "Scheduled",
    "timeTBD": false,
    "ticketUrl": "https://www.ticketmaster.com/event/0000642CEE45B40A"
  },
  {
    "id": 822487,
    "date": "2026-07-08T22:35:00Z",
    "sportId": 13,
    "league": "High-A",
    "home": "Asheville Tourists",
    "away": "Winston-Salem Dash",
    "homeId": 573,
    "awayId": 580,
    "venue": "HomeTrust Park",
    "city": "Asheville",
    "state": "North Carolina",
    "lat": 35.58668,
    "lon": -82.5501,
    "status": "Scheduled",
    "timeTBD": false,
    "ticketUrl": "https://mlb.tickets.com/?orgId=56611&agency=MILB_MPV&eventId=62747"
  },
  {
    "id": 819539,
    "date": "2026-07-08T22:35:00Z",
    "sportId": 13,
    "league": "High-A",
    "home": "West Michigan Whitecaps",
    "away": "Fort Wayne TinCaps",
    "homeId": 582,
    "awayId": 584,
    "venue": "LMCU Ballpark",
    "city": "Comstock Park",
    "state": "Michigan",
    "lat": 43.040797,
    "lon": -85.65933,
    "status": "Scheduled",
    "timeTBD": false,
    "ticketUrl": "https://mlb.tickets.com/?agency=MILB_MPV&orgid=53951&pid=9642095"
  },
  {
    "id": 822078,
    "date": "2026-07-08T22:35:00Z",
    "sportId": 13,
    "league": "High-A",
    "home": "Hub City Spartanburgers",
    "away": "Bowling Green Hot Rods",
    "homeId": 6324,
    "awayId": 2498,
    "venue": "Fifth Third Park",
    "city": "Spartanburg",
    "state": "South Carolina",
    "lat": 34.9449402,
    "lon": -81.9359415,
    "status": "Scheduled",
    "timeTBD": false,
    "ticketUrl": "https://mlb.tickets.com/?orgid=57729&agency=MILB_MPV&eventId=14883"
  },
  {
    "id": 820727,
    "date": "2026-07-08T22:35:00Z",
    "sportId": 14,
    "league": "Single-A",
    "home": "Daytona Tortugas",
    "away": "Palm Beach Cardinals",
    "homeId": 450,
    "awayId": 279,
    "venue": "Jackie Robinson Ballpark",
    "city": "Daytona Beach",
    "state": "Florida",
    "lat": 29.20922,
    "lon": -81.01596,
    "status": "Scheduled",
    "timeTBD": false,
    "ticketUrl": "https://mlb.tickets.com/?agency=MILB_MPV&orgid=57209&pid=9599075"
  },
  {
    "id": 824253,
    "date": "2026-07-08T22:40:00Z",
    "sportId": 1,
    "league": "MLB",
    "home": "Detroit Tigers",
    "away": "Athletics",
    "homeId": 116,
    "awayId": 133,
    "venue": "Comerica Park",
    "city": "Detroit",
    "state": "Michigan",
    "lat": 42.3391151,
    "lon": -83.048695,
    "status": "Scheduled",
    "timeTBD": false,
    "ticketUrl": "https://mlb.tickets.com/?agency=MLB_MPV&orgid=28&pid=9685153"
  },
  {
    "id": 823360,
    "date": "2026-07-08T22:40:00Z",
    "sportId": 1,
    "league": "MLB",
    "home": "Pittsburgh Pirates",
    "away": "Atlanta Braves",
    "homeId": 134,
    "awayId": 144,
    "venue": "PNC Park",
    "city": "Pittsburgh",
    "state": "Pennsylvania",
    "lat": 40.446904,
    "lon": -80.005753,
    "status": "Scheduled",
    "timeTBD": false,
    "ticketUrl": "https://mlb.tickets.com/?agency=MLB_MPV&orgid=7&pid=9643592"
  },
  {
    "id": 823848,
    "date": "2026-07-08T22:40:00Z",
    "sportId": 1,
    "league": "MLB",
    "home": "Miami Marlins",
    "away": "Seattle Mariners",
    "homeId": 146,
    "awayId": 136,
    "venue": "loanDepot park",
    "city": "Miami",
    "state": "Florida",
    "lat": 25.77796236,
    "lon": -80.21951795,
    "status": "Scheduled",
    "timeTBD": false,
    "ticketUrl": "https://mlb.tickets.com/?orgid=20&agency=MLB_MPV&pid=9598926"
  },
  {
    "id": 822957,
    "date": "2026-07-08T22:40:00Z",
    "sportId": 1,
    "league": "MLB",
    "home": "Tampa Bay Rays",
    "away": "New York Yankees",
    "homeId": 139,
    "awayId": 147,
    "venue": "Tropicana Field",
    "city": "St. Petersburg",
    "state": "Florida",
    "lat": 27.767778,
    "lon": -82.6525,
    "status": "Scheduled",
    "timeTBD": false,
    "ticketUrl": "https://mlb.tickets.com/?orgid=25&agency=MLB_MPV&pid=9628357"
  },
  {
    "id": 822341,
    "date": "2026-07-08T22:40:00Z",
    "sportId": 13,
    "league": "High-A",
    "home": "Brooklyn Cyclones",
    "away": "Wilmington Blue Rocks",
    "homeId": 453,
    "awayId": 426,
    "venue": "Maimonides Park",
    "city": "Brooklyn",
    "state": "New York",
    "lat": 40.57392,
    "lon": -73.98473,
    "status": "Scheduled",
    "timeTBD": false,
    "ticketUrl": "https://mlb.tickets.com/?orgid=58029&agency=MILB_MPV&eventId=4041"
  },
  {
    "id": 822710,
    "date": "2026-07-08T22:45:00Z",
    "sportId": 1,
    "league": "MLB",
    "home": "Washington Nationals",
    "away": "Houston Astros",
    "homeId": 120,
    "awayId": 117,
    "venue": "Nationals Park",
    "city": "Washington",
    "state": "District of Columbia",
    "lat": 38.872861,
    "lon": -77.007501,
    "status": "Scheduled",
    "timeTBD": false,
    "ticketUrl": "https://mlb.tickets.com/?orgid=17&agency=MLB_MPV&pid=9656003"
  },
  {
    "id": 815511,
    "date": "2026-07-08T22:45:00Z",
    "sportId": 11,
    "league": "Triple-A",
    "home": "Worcester Red Sox",
    "away": "Rochester Red Wings",
    "homeId": 533,
    "awayId": 534,
    "venue": "Polar Park",
    "city": "Worcester",
    "state": "Massachusetts",
    "lat": 42.25606,
    "lon": -71.80028,
    "status": "Scheduled",
    "timeTBD": false,
    "ticketUrl": "https://mlb.tickets.com/?orgId=57631&agency=MILB_MPV&eventId=15193"
  },
  {
    "id": 816330,
    "date": "2026-07-08T22:45:00Z",
    "sportId": 11,
    "league": "Triple-A",
    "home": "Lehigh Valley IronPigs",
    "away": "Columbus Clippers",
    "homeId": 1410,
    "awayId": 445,
    "venue": "Coca-Cola Park",
    "city": "Allentown",
    "state": "Pennsylvania",
    "lat": 40.6253183,
    "lon": -75.4516154,
    "status": "Scheduled",
    "timeTBD": false,
    "ticketUrl": "https://mlb.tickets.com/?agency=MILB_MPV&orgid=52489&eventId=61261"
  },
  {
    "id": 817893,
    "date": "2026-07-08T23:00:00Z",
    "sportId": 12,
    "league": "Double-A",
    "home": "Knoxville Smokies",
    "away": "Biloxi Shuckers",
    "homeId": 553,
    "awayId": 5015,
    "venue": "Covenant Health Park",
    "city": "Knoxville",
    "state": "Tennessee",
    "lat": 35.97248459516771,
    "lon": -83.91495041686319,
    "status": "Scheduled",
    "timeTBD": false,
    "ticketUrl": "https://www.ticketmaster.com/event/1B00644B733C3FE7"
  },
  {
    "id": 822279,
    "date": "2026-07-08T23:00:00Z",
    "sportId": 13,
    "league": "High-A",
    "home": "Frederick Keys",
    "away": "Jersey Shore BlueClaws",
    "homeId": 493,
    "awayId": 427,
    "venue": "Nymeo Field",
    "city": "Frederick",
    "state": "Maryland",
    "lat": null,
    "lon": null,
    "status": "Scheduled",
    "timeTBD": false,
    "ticketUrl": "https://www.ticketreturn.com/prod2/Buy.asp?EventID=356000"
  },
  {
    "id": 819867,
    "date": "2026-07-08T23:00:00Z",
    "sportId": 13,
    "league": "High-A",
    "home": "Lake County Captains",
    "away": "Lansing Lugnuts",
    "homeId": 437,
    "awayId": 499,
    "venue": "Classic Auto Group Park",
    "city": "Eastlake",
    "state": "Ohio",
    "lat": 41.6424351,
    "lon": -81.4367781,
    "status": "Scheduled",
    "timeTBD": false,
    "ticketUrl": "https://mlb.tickets.com/?orgId=57929&agency=MILB_MPV&eventId=2065"
  },
  {
    "id": 816854,
    "date": "2026-07-08T23:04:00Z",
    "sportId": 11,
    "league": "Triple-A",
    "home": "Charlotte Knights",
    "away": "Nashville Sounds",
    "homeId": 494,
    "awayId": 556,
    "venue": "Truist Field",
    "city": "Charlotte",
    "state": "North Carolina",
    "lat": 35.22781,
    "lon": -80.84823,
    "status": "Scheduled",
    "timeTBD": false,
    "ticketUrl": "https://mlb.tickets.com/?agency=MILB_MPV&orgid=57709&eventid=3435#"
  },
  {
    "id": 816561,
    "date": "2026-07-08T23:05:00Z",
    "sportId": 11,
    "league": "Triple-A",
    "home": "Indianapolis Indians",
    "away": "Toledo Mud Hens",
    "homeId": 484,
    "awayId": 512,
    "venue": "Victory Field",
    "city": "Indianapolis",
    "state": "Indiana",
    "lat": 39.7657354,
    "lon": -86.1682918,
    "status": "Scheduled",
    "timeTBD": false,
    "ticketUrl": "https://mlb.tickets.com/?orgId=54031&agency=MILB_MPV&eventId=63329#/event"
  },
  {
    "id": 816405,
    "date": "2026-07-08T23:05:00Z",
    "sportId": 11,
    "league": "Triple-A",
    "home": "Jacksonville Jumbo Shrimp",
    "away": "Durham Bulls",
    "homeId": 564,
    "awayId": 234,
    "venue": "Vystar Ballpark",
    "city": "Jacksonville",
    "state": "Florida",
    "lat": 30.32533,
    "lon": -81.64256,
    "status": "Scheduled",
    "timeTBD": false,
    "ticketUrl": "https://mlb.tickets.com/?orgId=56689&agency=MILB_MPV&eventId=61744"
  },
  {
    "id": 817769,
    "date": "2026-07-08T23:05:00Z",
    "sportId": 12,
    "league": "Double-A",
    "home": "Pensacola Blue Wahoos",
    "away": "Montgomery Biscuits",
    "homeId": 4124,
    "awayId": 421,
    "venue": "Blue Wahoos Stadium",
    "city": "Pensacola",
    "state": "Florida",
    "lat": 30.4048409,
    "lon": -87.2188349,
    "status": "Scheduled",
    "timeTBD": false,
    "ticketUrl": "https://mlb.tickets.com/?orgId=53713&agency=MILB_MPV&eventId=28040"
  },
  {
    "id": 819928,
    "date": "2026-07-08T23:05:00Z",
    "sportId": 13,
    "league": "High-A",
    "home": "Great Lakes Loons",
    "away": "Dayton Dragons",
    "homeId": 456,
    "awayId": 459,
    "venue": "Dow Diamond",
    "city": "Midland",
    "state": "Michigan",
    "lat": 43.6089355,
    "lon": -84.2397878,
    "status": "Scheduled",
    "timeTBD": false,
    "ticketUrl": "https://mlb.tickets.com/?agency=MILB_MPV&orgId=54391&eventId=60975"
  },
  {
    "id": 827521,
    "date": "2026-07-08T23:05:00Z",
    "sportId": 14,
    "league": "Single-A",
    "home": "Augusta GreenJackets",
    "away": "Hickory Crawdads",
    "homeId": 478,
    "awayId": 448,
    "venue": "SRP Park",
    "city": "North Augusta",
    "state": "South Carolina",
    "lat": 33.4844619,
    "lon": -81.9764372,
    "status": "Scheduled",
    "timeTBD": false,
    "ticketUrl": "https://mlb.tickets.com/?agency=MILB_MPV&orgid=56771&eventid=16621#"
  },
  {
    "id": 826923,
    "date": "2026-07-08T23:05:00Z",
    "sportId": 14,
    "league": "Single-A",
    "home": "Myrtle Beach Pelicans",
    "away": "Fredericksburg Nationals",
    "homeId": 521,
    "awayId": 436,
    "venue": "Pelicans Ballpark",
    "city": "Myrtle Beach",
    "state": "South Carolina",
    "lat": 33.711404,
    "lon": -78.88444,
    "status": "Scheduled",
    "timeTBD": false,
    "ticketUrl": "https://mlb.tickets.com/?orgId=57329&agency=MILB_MPV&eventId=63095"
  },
  {
    "id": 827313,
    "date": "2026-07-08T23:05:00Z",
    "sportId": 14,
    "league": "Single-A",
    "home": "Delmarva Shorebirds",
    "away": "Kannapolis Cannon Ballers",
    "homeId": 548,
    "awayId": 487,
    "venue": "Arthur W. Perdue Stadium",
    "city": "Salisbury",
    "state": "Maryland",
    "lat": 38.369979,
    "lon": -75.530656,
    "status": "Scheduled",
    "timeTBD": false,
    "ticketUrl": "https://mlb.tickets.com/?agency=MILB_MPV&orgid=56089&eventId=62599#/"
  },
  {
    "id": 820594,
    "date": "2026-07-08T23:05:00Z",
    "sportId": 14,
    "league": "Single-A",
    "home": "Fort Myers Mighty Mussels",
    "away": "Bradenton Marauders",
    "homeId": 509,
    "awayId": 3390,
    "venue": "Lee Health Sports Complex",
    "city": "Fort Myers",
    "state": "Florida",
    "lat": 26.537803,
    "lon": -81.841973,
    "status": "Scheduled",
    "timeTBD": false,
    "ticketUrl": "https://mlb.tickets.com/?orgId=55029&agency=MILB_MPV&eventId=65059"
  },
  {
    "id": 827395,
    "date": "2026-07-08T23:05:00Z",
    "sportId": 14,
    "league": "Single-A",
    "home": "Columbia Fireflies",
    "away": "Salem RidgeYaks",
    "homeId": 3705,
    "awayId": 414,
    "venue": "Segra Park",
    "city": "Columbia",
    "state": "South Carolina",
    "lat": 34.018317,
    "lon": -81.030958,
    "status": "Scheduled",
    "timeTBD": false,
    "ticketUrl": "https://mlb.tickets.com/?orgId=57151&agency=MILB_MPV&eventId=63371"
  },
  {
    "id": 817975,
    "date": "2026-07-08T23:06:00Z",
    "sportId": 12,
    "league": "Double-A",
    "home": "Columbus Clingstones",
    "away": "Birmingham Barons",
    "homeId": 6325,
    "awayId": 247,
    "venue": "Synovus Park",
    "city": "Columbus",
    "state": "Georgia",
    "lat": 32.4523727,
    "lon": -84.9939591,
    "status": "Scheduled",
    "timeTBD": false,
    "ticketUrl": "https://mlb.tickets.com/?agency=MILB_MPV&orgid=57769&eventid=5151"
  },
  {
    "id": 823605,
    "date": "2026-07-08T23:10:00Z",
    "sportId": 1,
    "league": "MLB",
    "home": "New York Mets",
    "away": "Kansas City Royals",
    "homeId": 121,
    "awayId": 118,
    "venue": "Citi Field",
    "city": "Flushing",
    "state": "New York",
    "lat": 40.75753012,
    "lon": -73.84559155,
    "status": "Scheduled",
    "timeTBD": false,
    "ticketUrl": "https://mlb.tickets.com/?agency=MLB_MPV&orgid=38129&pid=9682389"
  },
  {
    "id": 824496,
    "date": "2026-07-08T23:10:00Z",
    "sportId": 1,
    "league": "MLB",
    "home": "Cincinnati Reds",
    "away": "Philadelphia Phillies",
    "homeId": 113,
    "awayId": 143,
    "venue": "Great American Ball Park",
    "city": "Cincinnati",
    "state": "Ohio",
    "lat": 39.097389,
    "lon": -84.506611,
    "status": "Scheduled",
    "timeTBD": false,
    "ticketUrl": "http://mlb.tickets.com?orgid=6&agency=MLB_MPV&pid=9589281"
  },
  {
    "id": 818592,
    "date": "2026-07-08T23:10:00Z",
    "sportId": 12,
    "league": "Double-A",
    "home": "Hartford Yard Goats",
    "away": "Binghamton Rumble Ponies",
    "homeId": 538,
    "awayId": 505,
    "venue": "Dunkin' Park",
    "city": "Hartford",
    "state": "Connecticut",
    "lat": 41.77079,
    "lon": -72.6743078,
    "status": "Scheduled",
    "timeTBD": false,
    "ticketUrl": "https://mlb.tickets.com/?orgId=56009&agency=MILB_MPV&eventId=60577"
  },
  {
    "id": 817351,
    "date": "2026-07-08T23:30:00Z",
    "sportId": 12,
    "league": "Double-A",
    "home": "Midland RockHounds",
    "away": "San Antonio Missions",
    "homeId": 237,
    "awayId": 510,
    "venue": "Momentum Bank Ballpark",
    "city": "Midland",
    "state": "Texas",
    "lat": 31.98835,
    "lon": -102.15482,
    "status": "Scheduled",
    "timeTBD": false,
    "ticketUrl": "https://mlb.tickets.com/?agency=MILB_MPV&orgId=56877&eventId=15611"
  },
  {
    "id": 819658,
    "date": "2026-07-08T23:30:00Z",
    "sportId": 13,
    "league": "High-A",
    "home": "Quad Cities River Bandits",
    "away": "Peoria Chiefs",
    "homeId": 565,
    "awayId": 443,
    "venue": "Modern Woodmen Park",
    "city": "Davenport",
    "state": "Iowa",
    "lat": 41.51868,
    "lon": -90.58187,
    "status": "Scheduled",
    "timeTBD": false,
    "ticketUrl": "https://uw1.glitnirticketing.com/uwticket/web/stadiumg.php?status_id=2&event_id=166"
  },
  {
    "id": 817489,
    "date": "2026-07-08T23:35:00Z",
    "sportId": 12,
    "league": "Double-A",
    "home": "Corpus Christi Hooks",
    "away": "Frisco RoughRiders",
    "homeId": 482,
    "awayId": 540,
    "venue": "Whataburger Field",
    "city": "Corpus Christi",
    "state": "Texas",
    "lat": 27.80995,
    "lon": -97.39941,
    "status": "Scheduled",
    "timeTBD": false,
    "ticketUrl": "https://mlb.tickets.com/?orgId=58671&agency=MILB_MPV&eventId=6707"
  },
  {
    "id": 817695,
    "date": "2026-07-08T23:35:00Z",
    "sportId": 12,
    "league": "Double-A",
    "home": "Rocket City Trash Pandas",
    "away": "Chattanooga Lookouts",
    "homeId": 559,
    "awayId": 498,
    "venue": "Toyota Field",
    "city": "Madison",
    "state": "Alabama",
    "lat": 34.6837403,
    "lon": -86.7274237,
    "status": "Scheduled",
    "timeTBD": false,
    "ticketUrl": "https://mlb.tickets.com/?agency=MILB_MPV&orgid=54449&eventID=26774#"
  },
  {
    "id": 823684,
    "date": "2026-07-08T23:40:00Z",
    "sportId": 1,
    "league": "MLB",
    "home": "Minnesota Twins",
    "away": "Cleveland Guardians",
    "homeId": 142,
    "awayId": 114,
    "venue": "Target Field",
    "city": "Minneapolis",
    "state": "Minnesota",
    "lat": 44.981829,
    "lon": -93.277891,
    "status": "Scheduled",
    "timeTBD": false,
    "ticketUrl": "https://mlb.tickets.com/?agency=MLB_MPV&orgid=9&pid=9651275"
  },
  {
    "id": 824578,
    "date": "2026-07-08T23:40:00Z",
    "sportId": 1,
    "league": "MLB",
    "home": "Chicago White Sox",
    "away": "Boston Red Sox",
    "homeId": 145,
    "awayId": 111,
    "venue": "Rate Field",
    "city": "Chicago",
    "state": "Illinois",
    "lat": 41.83,
    "lon": -87.634167,
    "status": "Scheduled",
    "timeTBD": false,
    "ticketUrl": "https://www.ticketmaster.com/event/04006356AD155260"
  },
  {
    "id": 823032,
    "date": "2026-07-08T23:45:00Z",
    "sportId": 1,
    "league": "MLB",
    "home": "St. Louis Cardinals",
    "away": "Milwaukee Brewers",
    "homeId": 138,
    "awayId": 158,
    "venue": "Busch Stadium",
    "city": "St. Louis",
    "state": "Missouri",
    "lat": 38.62256667,
    "lon": -90.19286667,
    "status": "Scheduled",
    "timeTBD": false,
    "ticketUrl": "https://mlb.tickets.com/?orgid=10&agency=MLB_MPV&pid=9626387"
  },
  {
    "id": 817072,
    "date": "2026-07-09T00:00:00Z",
    "sportId": 12,
    "league": "Double-A",
    "home": "Tulsa Drillers",
    "away": "Springfield Cardinals",
    "homeId": 260,
    "awayId": 440,
    "venue": "ONEOK Field",
    "city": "Tulsa",
    "state": "Oklahoma",
    "lat": 36.1601215,
    "lon": -95.9888782,
    "status": "Scheduled",
    "timeTBD": false,
    "ticketUrl": "https://mlb.tickets.com/?orgId=57369&agency=MILB_MPV&eventId=17034"
  },
  {
    "id": 822880,
    "date": "2026-07-09T00:05:00Z",
    "sportId": 1,
    "league": "MLB",
    "home": "Texas Rangers",
    "away": "Los Angeles Angels",
    "homeId": 140,
    "awayId": 108,
    "venue": "Globe Life Field",
    "city": "Arlington",
    "state": "Texas",
    "lat": 32.747299,
    "lon": -97.081818,
    "status": "Scheduled",
    "timeTBD": false,
    "ticketUrl": "https://mlb.tickets.com/?agency=MLB_MPV&orgid=3&pid=9646996"
  },
  {
    "id": 815205,
    "date": "2026-07-09T00:05:00Z",
    "sportId": 11,
    "league": "Triple-A",
    "home": "Oklahoma City Comets",
    "away": "El Paso Chihuahuas",
    "homeId": 238,
    "awayId": 4904,
    "venue": "Chickasaw Bricktown Ballpark",
    "city": "Oklahoma City",
    "state": "Oklahoma",
    "lat": 35.46511,
    "lon": -97.50762,
    "status": "Scheduled",
    "timeTBD": false,
    "ticketUrl": "https://www.ticketmaster.com/oklahoma-city-comets-vs-el-paso-oklahoma-city-oklahoma-07-08-2026/event/0C006445EE8ED276"
  },
  {
    "id": 814830,
    "date": "2026-07-09T00:05:00Z",
    "sportId": 11,
    "league": "Triple-A",
    "home": "Sugar Land Space Cowboys",
    "away": "Albuquerque Isotopes",
    "homeId": 5434,
    "awayId": 342,
    "venue": "Constellation Field",
    "city": "Sugar Land",
    "state": "Texas",
    "lat": 29.62275645,
    "lon": -95.64718344,
    "status": "Scheduled",
    "timeTBD": false,
    "ticketUrl": "https://mlb.tickets.com/?agency=MILB_MPV&orgid=58649&eventId=6813&mkt_code=SLS_WEB#"
  },
  {
    "id": 817631,
    "date": "2026-07-09T00:05:00Z",
    "sportId": 12,
    "league": "Double-A",
    "home": "Amarillo Sod Poodles",
    "away": "Arkansas Travelers",
    "homeId": 5368,
    "awayId": 574,
    "venue": "Hodgetown",
    "city": "Amarillo",
    "state": "Texas",
    "lat": 35.2050189,
    "lon": -101.8339567,
    "status": "Scheduled",
    "timeTBD": false,
    "ticketUrl": "https://mlb.tickets.com/?agency=MILB_MPV&orgid=53388&eventId=27908#"
  },
  {
    "id": 817007,
    "date": "2026-07-09T00:05:00Z",
    "sportId": 12,
    "league": "Double-A",
    "home": "Wichita Wind Surge",
    "away": "Northwest Arkansas Naturals",
    "homeId": 3898,
    "awayId": 1350,
    "venue": "Equity Bank Park",
    "city": "Wichita",
    "state": "Kansas",
    "lat": 37.6813367,
    "lon": -97.3475531,
    "status": "Scheduled",
    "timeTBD": false,
    "ticketUrl": "https://mlb.tickets.com/?agency=MILB_MPV&orgid=56869&eventID=14568#"
  },
  {
    "id": 821120,
    "date": "2026-07-09T01:30:00Z",
    "sportId": 14,
    "league": "Single-A",
    "home": "Rancho Cucamonga Quakes",
    "away": "Lake Elsinore Storm",
    "homeId": 526,
    "awayId": 103,
    "venue": "Morongo Field",
    "city": "Rancho Cucamonga",
    "state": "California",
    "lat": 34.102721,
    "lon": -117.54792,
    "status": "Scheduled",
    "timeTBD": false,
    "ticketUrl": "https://mlb.tickets.com/?orgId=58309&agency=MILB_MPV&eventId=4339"
  },
  {
    "id": 819405,
    "date": "2026-07-09T01:35:00Z",
    "sportId": 13,
    "league": "High-A",
    "home": "Eugene Emeralds",
    "away": "Spokane Indians",
    "homeId": 461,
    "awayId": 486,
    "venue": "PK Park",
    "city": "Eugene",
    "state": "Oregon",
    "lat": 44.059012,
    "lon": -123.065482,
    "status": "Scheduled",
    "timeTBD": false,
    "ticketUrl": "https://mlb.tickets.com/?orgId=54053&agency=MILB_MPV&eventId=18996"
  },
  {
    "id": 820920,
    "date": "2026-07-09T01:35:00Z",
    "sportId": 14,
    "league": "Single-A",
    "home": "Visalia Rawhide",
    "away": "San Jose Giants",
    "homeId": 516,
    "awayId": 476,
    "venue": "Valley Strong Ballpark",
    "city": "Visalia",
    "state": "California",
    "lat": 36.3320197,
    "lon": -119.3053325,
    "status": "Scheduled",
    "timeTBD": false,
    "ticketUrl": "https://www.ticketreturn.com/prod2new/BuyNew.asp?EventID=355429"
  },
  {
    "id": 821185,
    "date": "2026-07-09T01:35:00Z",
    "sportId": 14,
    "league": "Single-A",
    "home": "Ontario Tower Buzzers",
    "away": "Inland Empire 66ers",
    "homeId": 6482,
    "awayId": 401,
    "venue": "ONT Field",
    "city": "Ontario",
    "state": "California",
    "lat": 34.0184639834586,
    "lon": -117.60331808557788,
    "status": "Scheduled",
    "timeTBD": false,
    "ticketUrl": "https://mlb.tickets.com/?orgId=58349&agency=MILB_MPV&eventId=6265"
  },
  {
    "id": 814990,
    "date": "2026-07-09T01:45:00Z",
    "sportId": 11,
    "league": "Triple-A",
    "home": "Sacramento River Cats",
    "away": "Salt Lake Bees",
    "homeId": 105,
    "awayId": 561,
    "venue": "Sutter Health Park",
    "city": "Sacramento",
    "state": "California",
    "lat": 38.57994,
    "lon": -121.51246,
    "status": "Scheduled",
    "timeTBD": false,
    "ticketUrl": "http://www.ticketmaster.com/event/1C006434F5C1F899"
  },
  {
    "id": 815287,
    "date": "2026-07-09T02:05:00Z",
    "sportId": 11,
    "league": "Triple-A",
    "home": "Las Vegas Aviators",
    "away": "Tacoma Rainiers",
    "homeId": 400,
    "awayId": 529,
    "venue": "Las Vegas Ballpark",
    "city": "Las Vegas",
    "state": "Nevada",
    "lat": 36.152607,
    "lon": -115.329888,
    "status": "Scheduled",
    "timeTBD": false,
    "ticketUrl": "https://www.ticketmaster.com/event/1700636BF8DB19E5"
  },
  {
    "id": 819072,
    "date": "2026-07-09T02:05:00Z",
    "sportId": 13,
    "league": "High-A",
    "home": "Vancouver Canadians",
    "away": "Everett AquaSox",
    "homeId": 435,
    "awayId": 403,
    "venue": "Rogers Field at Nat Bailey Stadium",
    "city": "Vancouver",
    "state": "British Columbia",
    "lat": 49.2431966,
    "lon": -123.1054384,
    "status": "Scheduled",
    "timeTBD": false,
    "ticketUrl": "https://mlb.tickets.com/?agency=MILB_MPV&orgid=57029&eventID=16139"
  },
  {
    "id": 819136,
    "date": "2026-07-09T02:05:00Z",
    "sportId": 13,
    "league": "High-A",
    "home": "Tri-City Dust Devils",
    "away": "Hillsboro Hops",
    "homeId": 460,
    "awayId": 419,
    "venue": "Gesa Stadium",
    "city": "Pasco",
    "state": "Washington",
    "lat": 46.27032,
    "lon": -119.17079,
    "status": "Scheduled",
    "timeTBD": false,
    "ticketUrl": "https://mlb.tickets.com/?orgId=58369&agency=MILB_MPV&eventId=4767"
  },
  {
    "id": 820989,
    "date": "2026-07-09T02:05:00Z",
    "sportId": 14,
    "league": "Single-A",
    "home": "Stockton Ports",
    "away": "Fresno Grizzlies",
    "homeId": 524,
    "awayId": 259,
    "venue": "Banner Island Ballpark",
    "city": "Stockton",
    "state": "California",
    "lat": 37.954863,
    "lon": -121.297357,
    "status": "Scheduled",
    "timeTBD": false,
    "ticketUrl": "https://mlb.tickets.com/?orgId=56609&agency=MILB_MPV&eventId=18483#"
  },
  {
    "id": 823928,
    "date": "2026-07-09T02:10:00Z",
    "sportId": 1,
    "league": "MLB",
    "home": "Los Angeles Dodgers",
    "away": "Colorado Rockies",
    "homeId": 119,
    "awayId": 115,
    "venue": "UNIQLO Field at Dodger Stadium",
    "city": "Los Angeles",
    "state": "California",
    "lat": 34.07368,
    "lon": -118.24053,
    "status": "Scheduled",
    "timeTBD": false,
    "ticketUrl": "https://mlb.tickets.com/?agency=MLB_MPV&orgid=8&pid=9694826"
  },
  {
    "id": 823279,
    "date": "2026-07-09T02:10:00Z",
    "sportId": 1,
    "league": "MLB",
    "home": "San Diego Padres",
    "away": "Arizona Diamondbacks",
    "homeId": 135,
    "awayId": 109,
    "venue": "Petco Park",
    "city": "San Diego",
    "state": "California",
    "lat": 32.707861,
    "lon": -117.157278,
    "status": "Scheduled",
    "timeTBD": false,
    "ticketUrl": "https://mlb.tickets.com/?orgid=58251&agency=MLB_MPV&pid=9657713"
  },
  {
    "id": 820520,
    "date": "2026-07-09T16:00:00Z",
    "sportId": 14,
    "league": "Single-A",
    "home": "Jupiter Hammerheads",
    "away": "St. Lucie Mets",
    "homeId": 479,
    "awayId": 507,
    "venue": "Roger Dean Chevrolet Stadium",
    "city": "Jupiter",
    "state": "Florida",
    "lat": 26.890957,
    "lon": -80.116365,
    "status": "Scheduled",
    "timeTBD": false,
    "ticketUrl": "https://mlb.tickets.com/?agency=JUPV_PL_MPV&orgid=57091&pid=9680096"
  },
  {
    "id": 823359,
    "date": "2026-07-09T16:35:00Z",
    "sportId": 1,
    "league": "MLB",
    "home": "Pittsburgh Pirates",
    "away": "Atlanta Braves",
    "homeId": 134,
    "awayId": 144,
    "venue": "PNC Park",
    "city": "Pittsburgh",
    "state": "Pennsylvania",
    "lat": 40.446904,
    "lon": -80.005753,
    "status": "Scheduled",
    "timeTBD": false,
    "ticketUrl": "https://mlb.tickets.com/?agency=MLB_MPV&orgid=7&pid=9643593"
  },
  {
    "id": 823606,
    "date": "2026-07-09T17:10:00Z",
    "sportId": 1,
    "league": "MLB",
    "home": "New York Mets",
    "away": "Kansas City Royals",
    "homeId": 121,
    "awayId": 118,
    "venue": "Citi Field",
    "city": "Flushing",
    "state": "New York",
    "lat": 40.75753012,
    "lon": -73.84559155,
    "status": "Scheduled",
    "timeTBD": false,
    "ticketUrl": "https://mlb.tickets.com/?agency=MLB_MPV&orgid=38129&pid=9682390"
  },
  {
    "id": 822954,
    "date": "2026-07-09T17:10:00Z",
    "sportId": 1,
    "league": "MLB",
    "home": "Tampa Bay Rays",
    "away": "New York Yankees",
    "homeId": 139,
    "awayId": 147,
    "venue": "Tropicana Field",
    "city": "St. Petersburg",
    "state": "Florida",
    "lat": 27.767778,
    "lon": -82.6525,
    "status": "Scheduled",
    "timeTBD": false,
    "ticketUrl": "https://mlb.tickets.com/?orgid=25&agency=MLB_MPV&pid=9628358"
  },
  {
    "id": 823683,
    "date": "2026-07-09T17:40:00Z",
    "sportId": 1,
    "league": "MLB",
    "home": "Minnesota Twins",
    "away": "Cleveland Guardians",
    "homeId": 142,
    "awayId": 114,
    "venue": "Target Field",
    "city": "Minneapolis",
    "state": "Minnesota",
    "lat": 44.981829,
    "lon": -93.277891,
    "status": "Scheduled",
    "timeTBD": false,
    "ticketUrl": "https://mlb.tickets.com/?agency=MLB_MPV&orgid=9&pid=9651276"
  },
  {
    "id": 824577,
    "date": "2026-07-09T18:10:00Z",
    "sportId": 1,
    "league": "MLB",
    "home": "Chicago White Sox",
    "away": "Boston Red Sox",
    "homeId": 145,
    "awayId": 111,
    "venue": "Rate Field",
    "city": "Chicago",
    "state": "Illinois",
    "lat": 41.83,
    "lon": -87.634167,
    "status": "Scheduled",
    "timeTBD": false,
    "ticketUrl": "https://www.ticketmaster.com/event/04006356AD195263"
  },
  {
    "id": 818933,
    "date": "2026-07-09T22:00:00Z",
    "sportId": 12,
    "league": "Double-A",
    "home": "Altoona Curve",
    "away": "Richmond Flying Squirrels",
    "homeId": 452,
    "awayId": 3410,
    "venue": "Peoples Natural Gas Field",
    "city": "Altoona",
    "state": "Pennsylvania",
    "lat": 40.473826,
    "lon": -78.394753,
    "status": "Scheduled",
    "timeTBD": false,
    "ticketUrl": "https://www.ticketmaster.com/event/02006437CA71E0A8"
  },
  {
    "id": 818526,
    "date": "2026-07-09T22:03:00Z",
    "sportId": 12,
    "league": "Double-A",
    "home": "New Hampshire Fisher Cats",
    "away": "Portland Sea Dogs",
    "homeId": 463,
    "awayId": 546,
    "venue": "Delta Dental Stadium",
    "city": "Manchester",
    "state": "New Hampshire",
    "lat": 42.98115,
    "lon": -71.46653,
    "status": "Scheduled",
    "timeTBD": false,
    "ticketUrl": "https://mlb.tickets.com/?agency=MILB_MPV&orgid=57689&pid=9582960"
  },
  {
    "id": 818730,
    "date": "2026-07-09T22:05:00Z",
    "sportId": 12,
    "league": "Double-A",
    "home": "Erie SeaWolves",
    "away": "Harrisburg Senators",
    "homeId": 106,
    "awayId": 547,
    "venue": "UPMC Park",
    "city": "Erie",
    "state": "Pennsylvania",
    "lat": 42.12706,
    "lon": -80.0803,
    "status": "Scheduled",
    "timeTBD": false,
    "ticketUrl": "https://mlb.tickets.com/?agency=MILB_MPV&orgid=57949&eventId=2195"
  },
  {
    "id": 822211,
    "date": "2026-07-09T22:30:00Z",
    "sportId": 13,
    "league": "High-A",
    "home": "Greensboro Grasshoppers",
    "away": "Greenville Drive",
    "homeId": 477,
    "awayId": 428,
    "venue": "First National Bank Field",
    "city": "Greensboro",
    "state": "North Carolina",
    "lat": 36.07667,
    "lon": -79.79487,
    "status": "Scheduled",
    "timeTBD": false,
    "ticketUrl": "https://www.ticketreturn.com/prod2new/Buy.asp?EventID=356708"
  },
  {
    "id": 826982,
    "date": "2026-07-09T22:30:00Z",
    "sportId": 14,
    "league": "Single-A",
    "home": "Hill City Howlers",
    "away": "Charleston RiverDogs",
    "homeId": 481,
    "awayId": 233,
    "venue": "City Stadium",
    "city": "Lynchburg",
    "state": "Virginia",
    "lat": 37.3930099,
    "lon": -79.1661,
    "status": "Scheduled",
    "timeTBD": false,
    "ticketUrl": "https://www.ticketreturn.com/prod2/Buy.asp?EventID=354208"
  },
  {
    "id": 820652,
    "date": "2026-07-09T22:30:00Z",
    "sportId": 14,
    "league": "Single-A",
    "home": "Dunedin Blue Jays",
    "away": "Lakeland Flying Tigers",
    "homeId": 424,
    "awayId": 570,
    "venue": "TD Ballpark",
    "city": "Dunedin",
    "state": "Florida",
    "lat": 27.9745812,
    "lon": -82.7913301,
    "status": "Scheduled",
    "timeTBD": false,
    "ticketUrl": "https://am.ticketmaster.com/tbjrcminorleague/buy/ism/U0QwNzA5MjY="
  },
  {
    "id": 820264,
    "date": "2026-07-09T22:30:00Z",
    "sportId": 14,
    "league": "Single-A",
    "home": "Tampa Tarpons",
    "away": "Clearwater Threshers",
    "homeId": 587,
    "awayId": 566,
    "venue": "George M. Steinbrenner Field",
    "city": "Tampa",
    "state": "Florida",
    "lat": 27.97997,
    "lon": -82.50702,
    "status": "Scheduled",
    "timeTBD": false,
    "ticketUrl": "https://www.ticketmaster.com/event/0D00647524ECADC0"
  },
  {
    "id": 824816,
    "date": "2026-07-09T22:35:00Z",
    "sportId": 1,
    "league": "MLB",
    "home": "Baltimore Orioles",
    "away": "Chicago Cubs",
    "homeId": 110,
    "awayId": 112,
    "venue": "Oriole Park at Camden Yards",
    "city": "Baltimore",
    "state": "Maryland",
    "lat": 39.283787,
    "lon": -76.621689,
    "status": "Scheduled",
    "timeTBD": false,
    "ticketUrl": "https://mlb.tickets.com/?agency=MLB_MPV&orgid=56069&pid=9632216"
  },
  {
    "id": 816932,
    "date": "2026-07-09T22:35:00Z",
    "sportId": 11,
    "league": "Triple-A",
    "home": "Buffalo Bisons",
    "away": "Scranton/Wilkes-Barre RailRiders",
    "homeId": 422,
    "awayId": 531,
    "venue": "Sahlen Field",
    "city": "Buffalo",
    "state": "New York",
    "lat": 42.880772,
    "lon": -78.873955,
    "status": "Scheduled",
    "timeTBD": false,
    "ticketUrl": "https://mlb.tickets.com/?orgId=58249&agency=MILB_MPV&eventId=3128"
  },
  {
    "id": 816256,
    "date": "2026-07-09T22:35:00Z",
    "sportId": 11,
    "league": "Triple-A",
    "home": "Louisville Bats",
    "away": "Omaha Storm Chasers",
    "homeId": 416,
    "awayId": 541,
    "venue": "Louisville Slugger Field",
    "city": "Louisville",
    "state": "Kentucky",
    "lat": 38.2557199,
    "lon": -85.74479,
    "status": "Scheduled",
    "timeTBD": false,
    "ticketUrl": "https://mlb.tickets.com/?agency=MILB_MPV&orgId=57629&eventId=16228"
  },
  {
    "id": 816040,
    "date": "2026-07-09T22:35:00Z",
    "sportId": 11,
    "league": "Triple-A",
    "home": "Norfolk Tides",
    "away": "Syracuse Mets",
    "homeId": 568,
    "awayId": 552,
    "venue": "Harbor Park",
    "city": "Norfolk",
    "state": "Virginia",
    "lat": 36.84265,
    "lon": -76.27803,
    "status": "Scheduled",
    "timeTBD": false,
    "ticketUrl": "https://www.ticketmaster.com/norfolk-tides-vs-syracuse-mets-norfolk-virginia-07-09-2026/event/010062F0A89F55A7"
  },
  {
    "id": 818998,
    "date": "2026-07-09T22:35:00Z",
    "sportId": 12,
    "league": "Double-A",
    "home": "Akron RubberDucks",
    "away": "Chesapeake Baysox",
    "homeId": 402,
    "awayId": 418,
    "venue": "7 17 Credit Union Park",
    "city": "Akron",
    "state": "Ohio",
    "lat": 41.07739,
    "lon": -81.52185,
    "status": "Scheduled",
    "timeTBD": false,
    "ticketUrl": "https://mlb.tickets.com/?agency=MILB_MPV&orgid=58169&pid=9633291"
  },
  {
    "id": 818241,
    "date": "2026-07-09T22:35:00Z",
    "sportId": 12,
    "league": "Double-A",
    "home": "Somerset Patriots",
    "away": "Reading Fightin Phils",
    "homeId": 1956,
    "awayId": 522,
    "venue": "TD Bank Ballpark",
    "city": "Bridgewater",
    "state": "New Jersey",
    "lat": 40.56081907,
    "lon": -74.55328462,
    "status": "Scheduled",
    "timeTBD": false,
    "ticketUrl": "https://so1.glitnirticketing.com/soticket/web/stadiumg.php?status_id=2&event_id=76"
  },
  {
    "id": 822014,
    "date": "2026-07-09T22:35:00Z",
    "sportId": 13,
    "league": "High-A",
    "home": "Hudson Valley Renegades",
    "away": "Rome Emperors",
    "homeId": 537,
    "awayId": 432,
    "venue": "Heritage Financial Park",
    "city": "Wappingers Falls",
    "state": "New York",
    "lat": 41.52638,
    "lon": -73.96109,
    "status": "Scheduled",
    "timeTBD": false,
    "ticketUrl": "https://www.ticketmaster.com/event/0000642CEE42B406"
  },
  {
    "id": 822474,
    "date": "2026-07-09T22:35:00Z",
    "sportId": 13,
    "league": "High-A",
    "home": "Asheville Tourists",
    "away": "Winston-Salem Dash",
    "homeId": 573,
    "awayId": 580,
    "venue": "HomeTrust Park",
    "city": "Asheville",
    "state": "North Carolina",
    "lat": 35.58668,
    "lon": -82.5501,
    "status": "Scheduled",
    "timeTBD": false,
    "ticketUrl": "https://mlb.tickets.com/?orgId=56611&agency=MILB_MPV&eventId=62748"
  },
  {
    "id": 819525,
    "date": "2026-07-09T22:35:00Z",
    "sportId": 13,
    "league": "High-A",
    "home": "West Michigan Whitecaps",
    "away": "Fort Wayne TinCaps",
    "homeId": 582,
    "awayId": 584,
    "venue": "LMCU Ballpark",
    "city": "Comstock Park",
    "state": "Michigan",
    "lat": 43.040797,
    "lon": -85.65933,
    "status": "Scheduled",
    "timeTBD": false,
    "ticketUrl": "https://mlb.tickets.com/?agency=MILB_MPV&orgid=53951&pid=9638649"
  },
  {
    "id": 822083,
    "date": "2026-07-09T22:35:00Z",
    "sportId": 13,
    "league": "High-A",
    "home": "Hub City Spartanburgers",
    "away": "Bowling Green Hot Rods",
    "homeId": 6324,
    "awayId": 2498,
    "venue": "Fifth Third Park",
    "city": "Spartanburg",
    "state": "South Carolina",
    "lat": 34.9449402,
    "lon": -81.9359415,
    "status": "Scheduled",
    "timeTBD": false,
    "ticketUrl": "https://mlb.tickets.com/?orgid=57729&agency=MILB_MPV&eventId=14884"
  },
  {
    "id": 820721,
    "date": "2026-07-09T22:35:00Z",
    "sportId": 14,
    "league": "Single-A",
    "home": "Daytona Tortugas",
    "away": "Palm Beach Cardinals",
    "homeId": 450,
    "awayId": 279,
    "venue": "Jackie Robinson Ballpark",
    "city": "Daytona Beach",
    "state": "Florida",
    "lat": 29.20922,
    "lon": -81.01596,
    "status": "Scheduled",
    "timeTBD": false,
    "ticketUrl": "https://mlb.tickets.com/?agency=MILB_MPV&orgid=57209&pid=9599076"
  },
  {
    "id": 824251,
    "date": "2026-07-09T22:40:00Z",
    "sportId": 1,
    "league": "MLB",
    "home": "Detroit Tigers",
    "away": "Athletics",
    "homeId": 116,
    "awayId": 133,
    "venue": "Comerica Park",
    "city": "Detroit",
    "state": "Michigan",
    "lat": 42.3391151,
    "lon": -83.048695,
    "status": "Scheduled",
    "timeTBD": false,
    "ticketUrl": "https://mlb.tickets.com/?agency=MLB_MPV&orgid=28&pid=9685154"
  },
  {
    "id": 823846,
    "date": "2026-07-09T22:40:00Z",
    "sportId": 1,
    "league": "MLB",
    "home": "Miami Marlins",
    "away": "Seattle Mariners",
    "homeId": 146,
    "awayId": 136,
    "venue": "loanDepot park",
    "city": "Miami",
    "state": "Florida",
    "lat": 25.77796236,
    "lon": -80.21951795,
    "status": "Scheduled",
    "timeTBD": false,
    "ticketUrl": "https://mlb.tickets.com/?orgid=20&agency=MLB_MPV&pid=9598927"
  },
  {
    "id": 822346,
    "date": "2026-07-09T22:40:00Z",
    "sportId": 13,
    "league": "High-A",
    "home": "Brooklyn Cyclones",
    "away": "Wilmington Blue Rocks",
    "homeId": 453,
    "awayId": 426,
    "venue": "Maimonides Park",
    "city": "Brooklyn",
    "state": "New York",
    "lat": 40.57392,
    "lon": -73.98473,
    "status": "Scheduled",
    "timeTBD": false,
    "ticketUrl": "https://mlb.tickets.com/?orgid=58029&agency=MILB_MPV&eventId=4042"
  },
  {
    "id": 815507,
    "date": "2026-07-09T22:45:00Z",
    "sportId": 11,
    "league": "Triple-A",
    "home": "Worcester Red Sox",
    "away": "Rochester Red Wings",
    "homeId": 533,
    "awayId": 534,
    "venue": "Polar Park",
    "city": "Worcester",
    "state": "Massachusetts",
    "lat": 42.25606,
    "lon": -71.80028,
    "status": "Scheduled",
    "timeTBD": false,
    "ticketUrl": "https://mlb.tickets.com/?orgId=57631&agency=MILB_MPV&eventId=15194"
  },
  {
    "id": 816325,
    "date": "2026-07-09T22:45:00Z",
    "sportId": 11,
    "league": "Triple-A",
    "home": "Lehigh Valley IronPigs",
    "away": "Columbus Clippers",
    "homeId": 1410,
    "awayId": 445,
    "venue": "Coca-Cola Park",
    "city": "Allentown",
    "state": "Pennsylvania",
    "lat": 40.6253183,
    "lon": -75.4516154,
    "status": "Scheduled",
    "timeTBD": false,
    "ticketUrl": "https://mlb.tickets.com/?agency=MILB_MPV&orgid=52489&eventId=61262"
  },
  {
    "id": 817896,
    "date": "2026-07-09T23:00:00Z",
    "sportId": 12,
    "league": "Double-A",
    "home": "Knoxville Smokies",
    "away": "Biloxi Shuckers",
    "homeId": 553,
    "awayId": 5015,
    "venue": "Covenant Health Park",
    "city": "Knoxville",
    "state": "Tennessee",
    "lat": 35.97248459516771,
    "lon": -83.91495041686319,
    "status": "Scheduled",
    "timeTBD": false,
    "ticketUrl": "https://www.ticketmaster.com/event/1B00644B73414000"
  },
  {
    "id": 822276,
    "date": "2026-07-09T23:00:00Z",
    "sportId": 13,
    "league": "High-A",
    "home": "Frederick Keys",
    "away": "Jersey Shore BlueClaws",
    "homeId": 493,
    "awayId": 427,
    "venue": "Nymeo Field",
    "city": "Frederick",
    "state": "Maryland",
    "lat": null,
    "lon": null,
    "status": "Scheduled",
    "timeTBD": false,
    "ticketUrl": "https://www.ticketreturn.com/prod2/Buy.asp?EventID=356001"
  },
  {
    "id": 819862,
    "date": "2026-07-09T23:00:00Z",
    "sportId": 13,
    "league": "High-A",
    "home": "Lake County Captains",
    "away": "Lansing Lugnuts",
    "homeId": 437,
    "awayId": 499,
    "venue": "Classic Auto Group Park",
    "city": "Eastlake",
    "state": "Ohio",
    "lat": 41.6424351,
    "lon": -81.4367781,
    "status": "Scheduled",
    "timeTBD": false,
    "ticketUrl": "https://mlb.tickets.com/?orgId=57929&agency=MILB_MPV&eventId=2066"
  },
  {
    "id": 816860,
    "date": "2026-07-09T23:04:00Z",
    "sportId": 11,
    "league": "Triple-A",
    "home": "Charlotte Knights",
    "away": "Nashville Sounds",
    "homeId": 494,
    "awayId": 556,
    "venue": "Truist Field",
    "city": "Charlotte",
    "state": "North Carolina",
    "lat": 35.22781,
    "lon": -80.84823,
    "status": "Scheduled",
    "timeTBD": false,
    "ticketUrl": "https://mlb.tickets.com/?agency=MILB_MPV&orgid=57709&eventid=3436#"
  },
  {
    "id": 816636,
    "date": "2026-07-09T23:05:00Z",
    "sportId": 11,
    "league": "Triple-A",
    "home": "Gwinnett Stripers",
    "away": "Memphis Redbirds",
    "homeId": 431,
    "awayId": 235,
    "venue": "Gwinnett Field",
    "city": "Lawrenceville",
    "state": "Georgia",
    "lat": 34.0409586,
    "lon": -83.9937909,
    "status": "Scheduled",
    "timeTBD": false,
    "ticketUrl": "https://www.ticketmaster.com/event/0E00643DC74CB07D"
  },
  {
    "id": 816554,
    "date": "2026-07-09T23:05:00Z",
    "sportId": 11,
    "league": "Triple-A",
    "home": "Indianapolis Indians",
    "away": "Toledo Mud Hens",
    "homeId": 484,
    "awayId": 512,
    "venue": "Victory Field",
    "city": "Indianapolis",
    "state": "Indiana",
    "lat": 39.7657354,
    "lon": -86.1682918,
    "status": "Scheduled",
    "timeTBD": false,
    "ticketUrl": "https://mlb.tickets.com/?orgId=54031&agency=MILB_MPV&eventId=63330#/event"
  },
  {
    "id": 816408,
    "date": "2026-07-09T23:05:00Z",
    "sportId": 11,
    "league": "Triple-A",
    "home": "Jacksonville Jumbo Shrimp",
    "away": "Durham Bulls",
    "homeId": 564,
    "awayId": 234,
    "venue": "Vystar Ballpark",
    "city": "Jacksonville",
    "state": "Florida",
    "lat": 30.32533,
    "lon": -81.64256,
    "status": "Scheduled",
    "timeTBD": false,
    "ticketUrl": "https://mlb.tickets.com/?orgId=56689&agency=MILB_MPV&eventId=61745"
  },
  {
    "id": 817763,
    "date": "2026-07-09T23:05:00Z",
    "sportId": 12,
    "league": "Double-A",
    "home": "Pensacola Blue Wahoos",
    "away": "Montgomery Biscuits",
    "homeId": 4124,
    "awayId": 421,
    "venue": "Blue Wahoos Stadium",
    "city": "Pensacola",
    "state": "Florida",
    "lat": 30.4048409,
    "lon": -87.2188349,
    "status": "Scheduled",
    "timeTBD": false,
    "ticketUrl": "https://mlb.tickets.com/?orgId=53713&agency=MILB_MPV&eventId=28041"
  },
  {
    "id": 819932,
    "date": "2026-07-09T23:05:00Z",
    "sportId": 13,
    "league": "High-A",
    "home": "Great Lakes Loons",
    "away": "Dayton Dragons",
    "homeId": 456,
    "awayId": 459,
    "venue": "Dow Diamond",
    "city": "Midland",
    "state": "Michigan",
    "lat": 43.6089355,
    "lon": -84.2397878,
    "status": "Scheduled",
    "timeTBD": false,
    "ticketUrl": "https://mlb.tickets.com/?agency=MILB_MPV&orgId=54391&eventId=60976"
  },
  {
    "id": 827519,
    "date": "2026-07-09T23:05:00Z",
    "sportId": 14,
    "league": "Single-A",
    "home": "Augusta GreenJackets",
    "away": "Hickory Crawdads",
    "homeId": 478,
    "awayId": 448,
    "venue": "SRP Park",
    "city": "North Augusta",
    "state": "South Carolina",
    "lat": 33.4844619,
    "lon": -81.9764372,
    "status": "Scheduled",
    "timeTBD": false,
    "ticketUrl": "https://mlb.tickets.com/?agency=MILB_MPV&orgid=56771&eventid=16622#"
  },
  {
    "id": 826922,
    "date": "2026-07-09T23:05:00Z",
    "sportId": 14,
    "league": "Single-A",
    "home": "Myrtle Beach Pelicans",
    "away": "Fredericksburg Nationals",
    "homeId": 521,
    "awayId": 436,
    "venue": "Pelicans Ballpark",
    "city": "Myrtle Beach",
    "state": "South Carolina",
    "lat": 33.711404,
    "lon": -78.88444,
    "status": "Scheduled",
    "timeTBD": false,
    "ticketUrl": "https://mlb.tickets.com/?orgId=57329&agency=MILB_MPV&eventId=63096"
  },
  {
    "id": 827312,
    "date": "2026-07-09T23:05:00Z",
    "sportId": 14,
    "league": "Single-A",
    "home": "Delmarva Shorebirds",
    "away": "Kannapolis Cannon Ballers",
    "homeId": 548,
    "awayId": 487,
    "venue": "Arthur W. Perdue Stadium",
    "city": "Salisbury",
    "state": "Maryland",
    "lat": 38.369979,
    "lon": -75.530656,
    "status": "Scheduled",
    "timeTBD": false,
    "ticketUrl": "https://mlb.tickets.com/?agency=MILB_MPV&orgid=56089&eventId=62600#/"
  },
  {
    "id": 820593,
    "date": "2026-07-09T23:05:00Z",
    "sportId": 14,
    "league": "Single-A",
    "home": "Fort Myers Mighty Mussels",
    "away": "Bradenton Marauders",
    "homeId": 509,
    "awayId": 3390,
    "venue": "Lee Health Sports Complex",
    "city": "Fort Myers",
    "state": "Florida",
    "lat": 26.537803,
    "lon": -81.841973,
    "status": "Scheduled",
    "timeTBD": false,
    "ticketUrl": "https://mlb.tickets.com/?orgId=55029&agency=MILB_MPV&eventId=65060"
  },
  {
    "id": 827394,
    "date": "2026-07-09T23:05:00Z",
    "sportId": 14,
    "league": "Single-A",
    "home": "Columbia Fireflies",
    "away": "Salem RidgeYaks",
    "homeId": 3705,
    "awayId": 414,
    "venue": "Segra Park",
    "city": "Columbia",
    "state": "South Carolina",
    "lat": 34.018317,
    "lon": -81.030958,
    "status": "Scheduled",
    "timeTBD": false,
    "ticketUrl": "https://mlb.tickets.com/?orgId=57151&agency=MILB_MPV&eventId=63372"
  },
  {
    "id": 826784,
    "date": "2026-07-09T23:05:00Z",
    "sportId": 14,
    "league": "Single-A",
    "home": "Wilson Warbirds",
    "away": "Fayetteville Woodpeckers",
    "homeId": 249,
    "awayId": 3712,
    "venue": "Wilson Ballpark",
    "city": "Wilson",
    "state": "North Carolina",
    "lat": null,
    "lon": null,
    "status": "Scheduled",
    "timeTBD": false,
    "ticketUrl": "https://mlb.tickets.com/?agency=MILB_MPV&orgid=58449&eventid=21079"
  },
  {
    "id": 817974,
    "date": "2026-07-09T23:06:00Z",
    "sportId": 12,
    "league": "Double-A",
    "home": "Columbus Clingstones",
    "away": "Birmingham Barons",
    "homeId": 6325,
    "awayId": 247,
    "venue": "Synovus Park",
    "city": "Columbus",
    "state": "Georgia",
    "lat": 32.4523727,
    "lon": -84.9939591,
    "status": "Scheduled",
    "timeTBD": false,
    "ticketUrl": "https://mlb.tickets.com/?agency=MILB_MPV&orgid=57769&eventid=5135"
  },
  {
    "id": 824494,
    "date": "2026-07-09T23:10:00Z",
    "sportId": 1,
    "league": "MLB",
    "home": "Cincinnati Reds",
    "away": "Philadelphia Phillies",
    "homeId": 113,
    "awayId": 143,
    "venue": "Great American Ball Park",
    "city": "Cincinnati",
    "state": "Ohio",
    "lat": 39.097389,
    "lon": -84.506611,
    "status": "Scheduled",
    "timeTBD": false,
    "ticketUrl": "http://mlb.tickets.com?orgid=6&agency=MLB_MPV&pid=9589282"
  },
  {
    "id": 818588,
    "date": "2026-07-09T23:10:00Z",
    "sportId": 12,
    "league": "Double-A",
    "home": "Hartford Yard Goats",
    "away": "Binghamton Rumble Ponies",
    "homeId": 538,
    "awayId": 505,
    "venue": "Dunkin' Park",
    "city": "Hartford",
    "state": "Connecticut",
    "lat": 41.77079,
    "lon": -72.6743078,
    "status": "Scheduled",
    "timeTBD": false,
    "ticketUrl": "https://mlb.tickets.com/?orgId=56009&agency=MILB_MPV&eventId=60578"
  },
  {
    "id": 819661,
    "date": "2026-07-09T23:30:00Z",
    "sportId": 13,
    "league": "High-A",
    "home": "Quad Cities River Bandits",
    "away": "Peoria Chiefs",
    "homeId": 565,
    "awayId": 443,
    "venue": "Modern Woodmen Park",
    "city": "Davenport",
    "state": "Iowa",
    "lat": 41.51868,
    "lon": -90.58187,
    "status": "Scheduled",
    "timeTBD": false,
    "ticketUrl": "https://uw1.glitnirticketing.com/uwticket/web/stadiumg.php?status_id=2&event_id=177"
  },
  {
    "id": 817491,
    "date": "2026-07-09T23:35:00Z",
    "sportId": 12,
    "league": "Double-A",
    "home": "Corpus Christi Hooks",
    "away": "Frisco RoughRiders",
    "homeId": 482,
    "awayId": 540,
    "venue": "Whataburger Field",
    "city": "Corpus Christi",
    "state": "Texas",
    "lat": 27.80995,
    "lon": -97.39941,
    "status": "Scheduled",
    "timeTBD": false,
    "ticketUrl": "https://mlb.tickets.com/?orgId=58671&agency=MILB_MPV&eventId=6708"
  },
  {
    "id": 817690,
    "date": "2026-07-09T23:35:00Z",
    "sportId": 12,
    "league": "Double-A",
    "home": "Rocket City Trash Pandas",
    "away": "Chattanooga Lookouts",
    "homeId": 559,
    "awayId": 498,
    "venue": "Toyota Field",
    "city": "Madison",
    "state": "Alabama",
    "lat": 34.6837403,
    "lon": -86.7274237,
    "status": "Scheduled",
    "timeTBD": false,
    "ticketUrl": "https://mlb.tickets.com/?agency=MILB_MPV&orgid=54449&eventID=26775#"
  },
  {
    "id": 820132,
    "date": "2026-07-09T23:35:00Z",
    "sportId": 13,
    "league": "High-A",
    "home": "Cedar Rapids Kernels",
    "away": "South Bend Cubs",
    "homeId": 492,
    "awayId": 550,
    "venue": "Veterans Memorial Stadium",
    "city": "Cedar Rapids",
    "state": "Iowa",
    "lat": 41.96785,
    "lon": -91.68662,
    "status": "Scheduled",
    "timeTBD": false,
    "ticketUrl": "https://www.ticketreturn.com/prod2new/BuyNew.asp?EventID=358086#"
  },