[
  {
    "id": 818470,
    "date": "2026-06-04T15:00:00Z",
    "sportId": 12,
    "league": "Double-A",
    "home": "Portland Sea Dogs",
    "away": "Hartford Yard Goats",
    "homeId": 546,
    "awayId": 538,
    "venue": "Delta Dental Park",
    "city": "Portland",
    "state": "Maine",
    "lat": 43.6562399,
    "lon": -70.27873,
    "status": "Scheduled",
    "timeTBD": false
  },
  {
    "id": 818536,
    "date": "2026-06-04T15:05:00Z",
    "sportId": 12,
    "league": "Double-A",
    "home": "New Hampshire Fisher Cats",
    "away": "Altoona Curve",
    "homeId": 463,
    "awayId": 452,
    "venue": "Delta Dental Stadium",
    "city": "Manchester",
    "state": "New Hampshire",
    "lat": 42.98115,
    "lon": -71.46653,
    "status": "Scheduled",
    "timeTBD": false
  },
  {
    "id": 816804,
    "date": "2026-06-04T16:05:00Z",
    "sportId": 11,
    "league": "Triple-A",
    "home": "Columbus Clippers",
    "away": "Omaha Storm Chasers",
    "homeId": 445,
    "awayId": 541,
    "venue": "Huntington Park",
    "city": "Columbus",
    "state": "Ohio",
    "lat": 39.96868,
    "lon": -83.01102,
    "status": "Scheduled",
    "timeTBD": false
  },
  {
    "id": 823457,
    "date": "2026-06-04T17:05:00Z",
    "sportId": 1,
    "league": "MLB",
    "home": "Philadelphia Phillies",
    "away": "San Diego Padres",
    "homeId": 143,
    "awayId": 135,
    "venue": "Citizens Bank Park",
    "city": "Philadelphia",
    "state": "Pennsylvania",
    "lat": 39.90539086,
    "lon": -75.16716957,
    "status": "Scheduled",
    "timeTBD": false
  },
  {
    "id": 824753,
    "date": "2026-06-04T17:35:00Z",
    "sportId": 1,
    "league": "MLB",
    "home": "Boston Red Sox",
    "away": "Baltimore Orioles",
    "homeId": 111,
    "awayId": 110,
    "venue": "Fenway Park",
    "city": "Boston",
    "state": "Massachusetts",
    "lat": 42.346456,
    "lon": -71.097441,
    "status": "Scheduled",
    "timeTBD": false
  },
  {
    "id": 823542,
    "date": "2026-06-04T17:35:00Z",
    "sportId": 1,
    "league": "MLB",
    "home": "New York Yankees",
    "away": "Cleveland Guardians",
    "homeId": 147,
    "awayId": 114,
    "venue": "Yankee Stadium",
    "city": "Bronx",
    "state": "New York",
    "lat": 40.82919482,
    "lon": -73.9264977,
    "status": "Scheduled",
    "timeTBD": false
  },
  {
    "id": 823779,
    "date": "2026-06-04T18:10:00Z",
    "sportId": 1,
    "league": "MLB",
    "home": "Milwaukee Brewers",
    "away": "San Francisco Giants",
    "homeId": 158,
    "awayId": 137,
    "venue": "American Family Field",
    "city": "Milwaukee",
    "state": "Wisconsin",
    "lat": 43.02838,
    "lon": -87.97099,
    "status": "Scheduled",
    "timeTBD": false
  },
  {
    "id": 817296,
    "date": "2026-06-04T21:05:00Z",
    "sportId": 12,
    "league": "Double-A",
    "home": "Northwest Arkansas Naturals",
    "away": "Midland RockHounds",
    "homeId": 1350,
    "awayId": 237,
    "venue": "Arvest Ballpark",
    "city": "Springdale",
    "state": "Arkansas",
    "lat": 36.15968,
    "lon": -94.194624,
    "status": "Scheduled",
    "timeTBD": false
  },
  {
    "id": 815527,
    "date": "2026-06-04T22:05:00Z",
    "sportId": 11,
    "league": "Triple-A",
    "home": "Worcester Red Sox",
    "away": "Buffalo Bisons",
    "homeId": 533,
    "awayId": 422,
    "venue": "Polar Park",
    "city": "Worcester",
    "state": "Massachusetts",
    "lat": 42.25606,
    "lon": -71.80028,
    "status": "Scheduled",
    "timeTBD": false
  },
  {
    "id": 818188,
    "date": "2026-06-04T22:05:00Z",
    "sportId": 12,
    "league": "Double-A",
    "home": "Biloxi Shuckers",
    "away": "Montgomery Biscuits",
    "homeId": 5015,
    "awayId": 421,
    "venue": "Keesler Federal Park",
    "city": "Biloxi",
    "state": "Mississippi",
    "lat": 30.395421,
    "lon": -88.893217,
    "status": "Scheduled",
    "timeTBD": false
  },
  {
    "id": 818877,
    "date": "2026-06-04T22:07:00Z",
    "sportId": 12,
    "league": "Double-A",
    "home": "Binghamton Rumble Ponies",
    "away": "Reading Fightin Phils",
    "homeId": 505,
    "awayId": 522,
    "venue": "Mirabito Stadium",
    "city": "Binghamton",
    "state": "New York",
    "lat": 42.1031199,
    "lon": -75.90379,
    "status": "Scheduled",
    "timeTBD": false
  },
  {
    "id": 818201,
    "date": "2026-06-04T22:10:00Z",
    "sportId": 12,
    "league": "Double-A",
    "home": "Biloxi Shuckers",
    "away": "Montgomery Biscuits",
    "homeId": 5015,
    "awayId": 421,
    "venue": "Keesler Federal Park",
    "city": "Biloxi",
    "state": "Mississippi",
    "lat": 30.395421,
    "lon": -88.893217,
    "status": "Scheduled",
    "timeTBD": true
  },
  {
    "id": 820346,
    "date": "2026-06-04T22:10:00Z",
    "sportId": 14,
    "league": "Single-A",
    "home": "St. Lucie Mets",
    "away": "Clearwater Threshers",
    "homeId": 507,
    "awayId": 566,
    "venue": "Clover Park",
    "city": "Port St. Lucie",
    "state": "Florida",
    "lat": 27.3249268,
    "lon": -80.4068854,
    "status": "Scheduled",
    "timeTBD": false
  },
  {
    "id": 818672,
    "date": "2026-06-04T22:30:00Z",
    "sportId": 12,
    "league": "Double-A",
    "home": "Harrisburg Senators",
    "away": "Somerset Patriots",
    "homeId": 547,
    "awayId": 1956,
    "venue": "FNB Field",
    "city": "Harrisburg",
    "state": "Pennsylvania",
    "lat": 40.2568294,
    "lon": -76.8896522,
    "status": "Scheduled",
    "timeTBD": false
  },
  {
    "id": 821761,
    "date": "2026-06-04T22:30:00Z",
    "sportId": 13,
    "league": "High-A",
    "home": "Winston-Salem Dash",
    "away": "Hub City Spartanburgers",
    "homeId": 580,
    "awayId": 6324,
    "venue": "Truist Stadium",
    "city": "Winston-Salem",
    "state": "North Carolina",
    "lat": 36.09182,
    "lon": -80.25527,
    "status": "Scheduled",
    "timeTBD": false
  },
  {
    "id": 820666,
    "date": "2026-06-04T22:30:00Z",
    "sportId": 14,
    "league": "Single-A",
    "home": "Dunedin Blue Jays",
    "away": "Daytona Tortugas",
    "homeId": 424,
    "awayId": 450,
    "venue": "TD Ballpark",
    "city": "Dunedin",
    "state": "Florida",
    "lat": 27.9745812,
    "lon": -82.7913301,
    "status": "Scheduled",
    "timeTBD": false
  },
  {
    "id": 820469,
    "date": "2026-06-04T22:30:00Z",
    "sportId": 14,
    "league": "Single-A",
    "home": "Lakeland Flying Tigers",
    "away": "Fort Myers Mighty Mussels",
    "homeId": 570,
    "awayId": 509,
    "venue": "Publix Field at Joker Marchant Stadium",
    "city": "Lakeland",
    "state": "Florida",
    "lat": 28.074822,
    "lon": -81.9508415,
    "status": "Scheduled",
    "timeTBD": false
  },
  {
    "id": 820266,
    "date": "2026-06-04T22:30:00Z",
    "sportId": 14,
    "league": "Single-A",
    "home": "Tampa Tarpons",
    "away": "Palm Beach Cardinals",
    "homeId": 587,
    "awayId": 279,
    "venue": "George M. Steinbrenner Field",
    "city": "Tampa",
    "state": "Florida",
    "lat": 27.97997,
    "lon": -82.50702,
    "status": "Scheduled",
    "timeTBD": false
  },
  {
    "id": 820534,
    "date": "2026-06-04T22:30:00Z",
    "sportId": 14,
    "league": "Single-A",
    "home": "Jupiter Hammerheads",
    "away": "Bradenton Marauders",
    "homeId": 479,
    "awayId": 3390,
    "venue": "Roger Dean Chevrolet Stadium",
    "city": "Jupiter",
    "state": "Florida",
    "lat": 26.890957,
    "lon": -80.116365,
    "status": "Scheduled",
    "timeTBD": false
  },
  {
    "id": 815669,
    "date": "2026-06-04T22:35:00Z",
    "sportId": 11,
    "league": "Triple-A",
    "home": "Syracuse Mets",
    "away": "Scranton/Wilkes-Barre RailRiders",
    "homeId": 552,
    "awayId": 531,
    "venue": "NBT Bank Stadium",
    "city": "Syracuse",
    "state": "New York",
    "lat": 43.079531,
    "lon": -76.165419,
    "status": "Scheduled",
    "timeTBD": false
  },
  {
    "id": 818809,
    "date": "2026-06-04T22:35:00Z",
    "sportId": 12,
    "league": "Double-A",
    "home": "Chesapeake Baysox",
    "away": "Akron RubberDucks",
    "homeId": 418,
    "awayId": 402,
    "venue": "Prince George's Stadium",
    "city": "Bowie",
    "state": "Maryland",
    "lat": 38.946114,
    "lon": -76.709334,
    "status": "Scheduled",
    "timeTBD": false
  },
  {
    "id": 822501,
    "date": "2026-06-04T22:35:00Z",
    "sportId": 13,
    "league": "High-A",
    "home": "Asheville Tourists",
    "away": "Greensboro Grasshoppers",
    "homeId": 573,
    "awayId": 477,
    "venue": "HomeTrust Park",
    "city": "Asheville",
    "state": "North Carolina",
    "lat": 35.58668,
    "lon": -82.5501,
    "status": "Scheduled",
    "timeTBD": false
  },
  {
    "id": 819555,
    "date": "2026-06-04T22:35:00Z",
    "sportId": 13,
    "league": "High-A",
    "home": "West Michigan Whitecaps",
    "away": "Dayton Dragons",
    "homeId": 582,
    "awayId": 459,
    "venue": "LMCU Ballpark",
    "city": "Comstock Park",
    "state": "Michigan",
    "lat": 43.040797,
    "lon": -85.65933,
    "status": "Scheduled",
    "timeTBD": false
  },
  {
    "id": 821833,
    "date": "2026-06-04T22:35:00Z",
    "sportId": 13,
    "league": "High-A",
    "home": "Wilmington Blue Rocks",
    "away": "Bowling Green Hot Rods",
    "homeId": 426,
    "awayId": 2498,
    "venue": "Frawley Stadium",
    "city": "Wilmington",
    "state": "Delaware",
    "lat": 39.731809,
    "lon": -75.564174,
    "status": "Scheduled",
    "timeTBD": false
  },
  {
    "id": 827202,
    "date": "2026-06-04T22:35:00Z",
    "sportId": 14,
    "league": "Single-A",
    "home": "Fredericksburg Nationals",
    "away": "Hill City Howlers",
    "homeId": 436,
    "awayId": 481,
    "venue": "Virginia Credit Union Stadium",
    "city": "Fredericksburg",
    "state": "Virginia",
    "lat": 38.3181302,
    "lon": -77.5124029,
    "status": "Scheduled",
    "timeTBD": false
  },
  {
    "id": 827261,
    "date": "2026-06-04T22:35:00Z",
    "sportId": 14,
    "league": "Single-A",
    "home": "Fayetteville Woodpeckers",
    "away": "Columbia Fireflies",
    "homeId": 3712,
    "awayId": 3705,
    "venue": "SEGRA Stadium",
    "city": "Fayetteville",
    "state": "North Carolina",
    "lat": 35.054357,
    "lon": -78.8851444,
    "status": "Scheduled",
    "timeTBD": false
  },
  {
    "id": 816718,
    "date": "2026-06-04T22:45:00Z",
    "sportId": 11,
    "league": "Triple-A",
    "home": "Durham Bulls",
    "away": "Charlotte Knights",
    "homeId": 234,
    "awayId": 494,
    "venue": "Durham Bulls Athletic Park",
    "city": "Durham",
    "state": "North Carolina",
    "lat": 35.99158,
    "lon": -78.90401,
    "status": "Scheduled",
    "timeTBD": false
  },
  {
    "id": 816346,
    "date": "2026-06-04T22:45:00Z",
    "sportId": 11,
    "league": "Triple-A",
    "home": "Lehigh Valley IronPigs",
    "away": "Rochester Red Wings",
    "homeId": 1410,
    "awayId": 534,
    "venue": "Coca-Cola Park",
    "city": "Allentown",
    "state": "Pennsylvania",
    "lat": 40.6253183,
    "lon": -75.4516154,
    "status": "Scheduled",
    "timeTBD": false
  },
  {
    "id": 821902,
    "date": "2026-06-04T22:45:00Z",
    "sportId": 13,
    "league": "High-A",
    "home": "Rome Emperors",
    "away": "Greenville Drive",
    "homeId": 432,
    "awayId": 428,
    "venue": "AdventHealth Stadium",
    "city": "Rome",
    "state": "Georgia",
    "lat": 34.285832,
    "lon": -85.167211,
    "status": "Scheduled",
    "timeTBD": false
  },
  {
    "id": 817912,
    "date": "2026-06-04T23:00:00Z",
    "sportId": 12,
    "league": "Double-A",
    "home": "Knoxville Smokies",
    "away": "Birmingham Barons",
    "homeId": 553,
    "awayId": 247,
    "venue": "Covenant Health Park",
    "city": "Knoxville",
    "state": "Tennessee",
    "lat": 35.97248459516771,
    "lon": -83.91495041686319,
    "status": "Scheduled",
    "timeTBD": false
  },
  {
    "id": 822289,
    "date": "2026-06-04T23:00:00Z",
    "sportId": 13,
    "league": "High-A",
    "home": "Frederick Keys",
    "away": "Hudson Valley Renegades",
    "homeId": 493,
    "awayId": 537,
    "venue": "Nymeo Field",
    "city": "Frederick",
    "state": "Maryland",
    "lat": null,
    "lon": null,
    "status": "Scheduled",
    "timeTBD": false
  },
  {
    "id": 827136,
    "date": "2026-06-04T23:00:00Z",
    "sportId": 14,
    "league": "Single-A",
    "home": "Hickory Crawdads",
    "away": "Kannapolis Cannon Ballers",
    "homeId": 448,
    "awayId": 487,
    "venue": "L.P. Frans Stadium",
    "city": "Hickory",
    "state": "North Carolina",
    "lat": 35.747289,
    "lon": -81.3778848,
    "status": "Scheduled",
    "timeTBD": false
  },
  {
    "id": 816423,
    "date": "2026-06-04T23:05:00Z",
    "sportId": 11,
    "league": "Triple-A",
    "home": "Jacksonville Jumbo Shrimp",
    "away": "Nashville Sounds",
    "homeId": 564,
    "awayId": 556,
    "venue": "Vystar Ballpark",
    "city": "Jacksonville",
    "state": "Florida",
    "lat": 30.32533,
    "lon": -81.64256,
    "status": "Scheduled",
    "timeTBD": false
  },
  {
    "id": 816652,
    "date": "2026-06-04T23:05:00Z",
    "sportId": 11,
    "league": "Triple-A",
    "home": "Gwinnett Stripers",
    "away": "Norfolk Tides",
    "homeId": 431,
    "awayId": 568,
    "venue": "Gwinnett Field",
    "city": "Lawrenceville",
    "state": "Georgia",
    "lat": 34.0409586,
    "lon": -83.9937909,
    "status": "Scheduled",
    "timeTBD": false
  },
  {
    "id": 818332,
    "date": "2026-06-04T23:05:00Z",
    "sportId": 12,
    "league": "Double-A",
    "home": "Richmond Flying Squirrels",
    "away": "Erie SeaWolves",
    "homeId": 3410,
    "awayId": 106,
    "venue": "CarMax Park",
    "city": "Richmond",
    "state": "Virginia",
    "lat": null,
    "lon": null,
    "status": "Scheduled",
    "timeTBD": false
  },
  {
    "id": 817775,
    "date": "2026-06-04T23:05:00Z",
    "sportId": 12,
    "league": "Double-A",
    "home": "Pensacola Blue Wahoos",
    "away": "Chattanooga Lookouts",
    "homeId": 4124,
    "awayId": 498,
    "venue": "Blue Wahoos Stadium",
    "city": "Pensacola",
    "state": "Florida",
    "lat": 30.4048409,
    "lon": -87.2188349,
    "status": "Scheduled",
    "timeTBD": false
  },
  {
    "id": 821964,
    "date": "2026-06-04T23:05:00Z",
    "sportId": 13,
    "league": "High-A",
    "home": "Jersey Shore BlueClaws",
    "away": "Brooklyn Cyclones",
    "homeId": 427,
    "awayId": 453,
    "venue": "ShoreTown Ballpark",
    "city": "Lakewood",
    "state": "New Jersey",
    "lat": 40.07495,
    "lon": -74.18846,
    "status": "Scheduled",
    "timeTBD": false
  },
  {
    "id": 819945,
    "date": "2026-06-04T23:05:00Z",
    "sportId": 13,
    "league": "High-A",
    "home": "Great Lakes Loons",
    "away": "Lansing Lugnuts",
    "homeId": 456,
    "awayId": 499,
    "venue": "Dow Diamond",
    "city": "Midland",
    "state": "Michigan",
    "lat": 43.6089355,
    "lon": -84.2397878,
    "status": "Scheduled",
    "timeTBD": false
  },
  {
    "id": 820008,
    "date": "2026-06-04T23:05:00Z",
    "sportId": 13,
    "league": "High-A",
    "home": "Fort Wayne TinCaps",
    "away": "Lake County Captains",
    "homeId": 584,
    "awayId": 437,
    "venue": "Parkview Field",
    "city": "Fort Wayne",
    "state": "Indiana",
    "lat": 41.07345,
    "lon": -85.14366,
    "status": "Scheduled",
    "timeTBD": false
  },
  {
    "id": 826802,
    "date": "2026-06-04T23:05:00Z",
    "sportId": 14,
    "league": "Single-A",
    "home": "Wilson Warbirds",
    "away": "Salem RidgeYaks",
    "homeId": 249,
    "awayId": 414,
    "venue": "Wilson Ballpark",
    "city": "Wilson",
    "state": "North Carolina",
    "lat": null,
    "lon": null,
    "status": "Scheduled",
    "timeTBD": false
  },
  {
    "id": 827475,
    "date": "2026-06-04T23:05:00Z",
    "sportId": 14,
    "league": "Single-A",
    "home": "Charleston RiverDogs",
    "away": "Myrtle Beach Pelicans",
    "homeId": 233,
    "awayId": 521,
    "venue": "Joseph P. Riley, Jr. Ballpark",
    "city": "Charleston",
    "state": "South Carolina",
    "lat": 32.790421,
    "lon": -79.961332,
    "status": "Scheduled",
    "timeTBD": false
  },
  {
    "id": 827538,
    "date": "2026-06-04T23:05:00Z",
    "sportId": 14,
    "league": "Single-A",
    "home": "Augusta GreenJackets",
    "away": "Delmarva Shorebirds",
    "homeId": 478,
    "awayId": 548,
    "venue": "SRP Park",
    "city": "North Augusta",
    "state": "South Carolina",
    "lat": 33.4844619,
    "lon": -81.9764372,
    "status": "Scheduled",
    "timeTBD": false
  },
  {
    "id": 824919,
    "date": "2026-06-04T23:15:00Z",
    "sportId": 1,
    "league": "MLB",
    "home": "Atlanta Braves",
    "away": "Toronto Blue Jays",
    "homeId": 144,
    "awayId": 141,
    "venue": "Truist Park",
    "city": "Atlanta",
    "state": "Georgia",
    "lat": 33.890672,
    "lon": -84.467641,
    "status": "Scheduled",
    "timeTBD": false
  },
  {
    "id": 819679,
    "date": "2026-06-04T23:30:00Z",
    "sportId": 13,
    "league": "High-A",
    "home": "Quad Cities River Bandits",
    "away": "South Bend Cubs",
    "homeId": 565,
    "awayId": 550,
    "venue": "Modern Woodmen Park",
    "city": "Davenport",
    "state": "Iowa",
    "lat": 41.51868,
    "lon": -90.58187,
    "status": "Scheduled",
    "timeTBD": false
  },
  {
    "id": 817493,
    "date": "2026-06-04T23:35:00Z",
    "sportId": 12,
    "league": "Double-A",
    "home": "Corpus Christi Hooks",
    "away": "Arkansas Travelers",
    "homeId": 482,
    "awayId": 574,
    "venue": "Whataburger Field",
    "city": "Corpus Christi",
    "state": "Texas",
    "lat": 27.80995,
    "lon": -97.39941,
    "status": "Scheduled",
    "timeTBD": false
  },
  {
    "id": 817019,
    "date": "2026-06-04T23:35:00Z",
    "sportId": 12,
    "league": "Double-A",
    "home": "Wichita Wind Surge",
    "away": "San Antonio Missions",
    "homeId": 3898,
    "awayId": 510,
    "venue": "Equity Bank Park",
    "city": "Wichita",
    "state": "Kansas",
    "lat": 37.6813367,
    "lon": -97.3475531,
    "status": "Scheduled",
    "timeTBD": false
  },
  {
    "id": 817713,
    "date": "2026-06-04T23:35:00Z",
    "sportId": 12,
    "league": "Double-A",
    "home": "Rocket City Trash Pandas",
    "away": "Columbus Clingstones",
    "homeId": 559,
    "awayId": 6325,
    "venue": "Toyota Field",
    "city": "Madison",
    "state": "Alabama",
    "lat": 34.6837403,
    "lon": -86.7274237,
    "status": "Scheduled",
    "timeTBD": false
  },
  {
    "id": 819745,
    "date": "2026-06-04T23:35:00Z",
    "sportId": 13,
    "league": "High-A",
    "home": "Peoria Chiefs",
    "away": "Beloit Sky Carp",
    "homeId": 443,
    "awayId": 554,
    "venue": "Dozer Park",
    "city": "Peoria",
    "state": "Illinois",
    "lat": 40.68751,
    "lon": -89.59781,
    "status": "Scheduled",
    "timeTBD": false
  },
  {
    "id": 820134,
    "date": "2026-06-04T23:35:00Z",
    "sportId": 13,
    "league": "High-A",
    "home": "Cedar Rapids Kernels",
    "away": "Wisconsin Timber Rattlers",
    "homeId": 492,
    "awayId": 572,
    "venue": "Veterans Memorial Stadium",
    "city": "Cedar Rapids",
    "state": "Iowa",
    "lat": 41.96785,
    "lon": -91.68662,
    "status": "Scheduled",
    "timeTBD": false
  },
  {
    "id": 816494,
    "date": "2026-06-04T23:38:00Z",
    "sportId": 11,
    "league": "Triple-A",
    "home": "Iowa Cubs",
    "away": "Toledo Mud Hens",
    "homeId": 451,
    "awayId": 512,
    "venue": "Principal Park",
    "city": "Des Moines",
    "state": "Iowa",
    "lat": 41.57998,
    "lon": -93.61619,
    "status": "Scheduled",
    "timeTBD": false
  },
  {
    "id": 823698,
    "date": "2026-06-04T23:40:00Z",
    "sportId": 1,
    "league": "MLB",
    "home": "Minnesota Twins",
    "away": "Kansas City Royals",
    "homeId": 142,
    "awayId": 118,
    "venue": "Target Field",
    "city": "Minneapolis",
    "state": "Minnesota",
    "lat": 44.981829,
    "lon": -93.277891,
    "status": "Scheduled",
    "timeTBD": false
  },
  {
    "id": 824672,
    "date": "2026-06-05T00:05:00Z",
    "sportId": 1,
    "league": "MLB",
    "home": "Chicago Cubs",
    "away": "Athletics",
    "homeId": 112,
    "awayId": 133,
    "venue": "Wrigley Field",
    "city": "Chicago",
    "state": "Illinois",
    "lat": 41.948171,
    "lon": -87.655503,
    "status": "Scheduled",
    "timeTBD": false
  },
  {
    "id": 815224,
    "date": "2026-06-05T00:05:00Z",
    "sportId": 11,
    "league": "Triple-A",
    "home": "Oklahoma City Comets",
    "away": "Round Rock Express",
    "homeId": 238,
    "awayId": 102,
    "venue": "Chickasaw Bricktown Ballpark",
    "city": "Oklahoma City",
    "state": "Oklahoma",
    "lat": 35.46511,
    "lon": -97.50762,
    "status": "Scheduled",
    "timeTBD": false
  },
  {
    "id": 816201,
    "date": "2026-06-05T00:05:00Z",
    "sportId": 11,
    "league": "Triple-A",
    "home": "Memphis Redbirds",
    "away": "Louisville Bats",
    "homeId": 235,
    "awayId": 416,
    "venue": "AutoZone Park",
    "city": "Memphis",
    "state": "Tennessee",
    "lat": 35.14297,
    "lon": -90.04924,
    "status": "Scheduled",
    "timeTBD": false
  },
  {
    "id": 817433,
    "date": "2026-06-05T00:05:00Z",
    "sportId": 12,
    "league": "Double-A",
    "home": "Frisco RoughRiders",
    "away": "Springfield Cardinals",
    "homeId": 540,
    "awayId": 440,
    "venue": "Riders Field",
    "city": "Frisco",
    "state": "Texas",
    "lat": 33.0984,
    "lon": -96.8197,
    "status": "Scheduled",
    "timeTBD": false
  },
  {
    "id": 817646,
    "date": "2026-06-05T00:05:00Z",
    "sportId": 12,
    "league": "Double-A",
    "home": "Amarillo Sod Poodles",
    "away": "Tulsa Drillers",
    "homeId": 5368,
    "awayId": 260,
    "venue": "Hodgetown",
    "city": "Amarillo",
    "state": "Texas",
    "lat": 35.2050189,
    "lon": -101.8339567,
    "status": "Scheduled",
    "timeTBD": false
  },
  {
    "id": 815745,
    "date": "2026-06-05T00:07:00Z",
    "sportId": 11,
    "league": "Triple-A",
    "home": "St. Paul Saints",
    "away": "Indianapolis Indians",
    "homeId": 1960,
    "awayId": 484,
    "venue": "CHS Field",
    "city": "St. Paul",
    "state": "Minnesota",
    "lat": 44.95089651,
    "lon": -93.08457526,
    "status": "Scheduled",
    "timeTBD": false
  },
  {
    "id": 824185,
    "date": "2026-06-05T00:10:00Z",
    "sportId": 1,
    "league": "MLB",
    "home": "Houston Astros",
    "away": "Pittsburgh Pirates",
    "homeId": 117,
    "awayId": 134,
    "venue": "Daikin Park",
    "city": "Houston",
    "state": "Texas",
    "lat": 29.756967,
    "lon": -95.355509,
    "status": "Scheduled",
    "timeTBD": false
  },
  {
    "id": 814918,
    "date": "2026-06-05T00:35:00Z",
    "sportId": 11,
    "league": "Triple-A",
    "home": "Salt Lake Bees",
    "away": "Albuquerque Isotopes",
    "homeId": 561,
    "awayId": 342,
    "venue": "The Ballpark at America First Square",
    "city": "South Jordan",
    "state": "Utah",
    "lat": 40.549066970052124,
    "lon": -112.02301999999999,
    "status": "Scheduled",
    "timeTBD": false
  },
  {
    "id": 815376,
    "date": "2026-06-05T00:35:00Z",
    "sportId": 11,
    "league": "Triple-A",
    "home": "El Paso Chihuahuas",
    "away": "Sugar Land Space Cowboys",
    "homeId": 4904,
    "awayId": 5434,
    "venue": "Southwest University Park",
    "city": "El Paso",
    "state": "Texas",
    "lat": 31.759277,
    "lon": -106.492526,
    "status": "Scheduled",
    "timeTBD": false
  },
  {
    "id": 819144,
    "date": "2026-06-05T01:30:00Z",
    "sportId": 13,
    "league": "High-A",
    "home": "Tri-City Dust Devils",
    "away": "Vancouver Canadians",
    "homeId": 460,
    "awayId": 435,
    "venue": "Gesa Stadium",
    "city": "Pasco",
    "state": "Washington",
    "lat": 46.27032,
    "lon": -119.17079,
    "status": "Scheduled",
    "timeTBD": false
  },
  {
    "id": 821062,
    "date": "2026-06-05T01:30:00Z",
    "sportId": 14,
    "league": "Single-A",
    "home": "San Jose Giants",
    "away": "Inland Empire 66ers",
    "homeId": 476,
    "awayId": 401,
    "venue": "Excite Ballpark",
    "city": "San Jose",
    "state": "California",
    "lat": 37.32128,
    "lon": -121.862286,
    "status": "Scheduled",
    "timeTBD": false
  },
  {
    "id": 821134,
    "date": "2026-06-05T01:30:00Z",
    "sportId": 14,
    "league": "Single-A",
    "home": "Rancho Cucamonga Quakes",
    "away": "Visalia Rawhide",
    "homeId": 526,
    "awayId": 516,
    "venue": "Morongo Field",
    "city": "Rancho Cucamonga",
    "state": "California",
    "lat": 34.102721,
    "lon": -117.54792,
    "status": "Scheduled",
    "timeTBD": false
  },
  {
    "id": 819221,
    "date": "2026-06-05T01:35:00Z",
    "sportId": 13,
    "league": "High-A",
    "home": "Spokane Indians",
    "away": "Hillsboro Hops",
    "homeId": 486,
    "awayId": 419,
    "venue": "Avista Stadium",
    "city": "Spokane",
    "state": "Washington",
    "lat": 47.661351,
    "lon": -117.344426,
    "status": "Scheduled",
    "timeTBD": false
  },
  {
    "id": 821197,
    "date": "2026-06-05T01:35:00Z",
    "sportId": 14,
    "league": "Single-A",
    "home": "Ontario Tower Buzzers",
    "away": "Stockton Ports",
    "homeId": 6482,
    "awayId": 524,
    "venue": "ONT Field",
    "city": "Ontario",
    "state": "California",
    "lat": 34.0184639834586,
    "lon": -117.60331808557788,
    "status": "Scheduled",
    "timeTBD": false
  },
  {
    "id": 825076,
    "date": "2026-06-05T01:40:00Z",
    "sportId": 1,
    "league": "MLB",
    "home": "Arizona Diamondbacks",
    "away": "Los Angeles Dodgers",
    "homeId": 109,
    "awayId": 119,
    "venue": "Chase Field",
    "city": "Phoenix",
    "state": "Arizona",
    "lat": 33.445302,
    "lon": -112.066687,
    "status": "Scheduled",
    "timeTBD": false
  },
  {
    "id": 814996,
    "date": "2026-06-05T01:45:00Z",
    "sportId": 11,
    "league": "Triple-A",
    "home": "Sacramento River Cats",
    "away": "Tacoma Rainiers",
    "homeId": 105,
    "awayId": 529,
    "venue": "Sutter Health Park",
    "city": "Sacramento",
    "state": "California",
    "lat": 38.57994,
    "lon": -121.51246,
    "status": "Scheduled",
    "timeTBD": false
  },
  {
    "id": 821400,
    "date": "2026-06-05T01:50:00Z",
    "sportId": 14,
    "league": "Single-A",
    "home": "Fresno Grizzlies",
    "away": "Lake Elsinore Storm",
    "homeId": 259,
    "awayId": 103,
    "venue": "Chukchansi Park",
    "city": "Fresno",
    "state": "California",
    "lat": 36.73256,
    "lon": -119.79157,
    "status": "Scheduled",
    "timeTBD": false
  },
  {
    "id": 815298,
    "date": "2026-06-05T02:05:00Z",
    "sportId": 11,
    "league": "Triple-A",
    "home": "Las Vegas Aviators",
    "away": "Reno Aces",
    "homeId": 400,
    "awayId": 2310,
    "venue": "Las Vegas Ballpark",
    "city": "Las Vegas",
    "state": "Nevada",
    "lat": 36.152607,
    "lon": -115.329888,
    "status": "Scheduled",
    "timeTBD": false
  },
  {
    "id": 819343,
    "date": "2026-06-05T02:05:00Z",
    "sportId": 13,
    "league": "High-A",
    "home": "Everett AquaSox",
    "away": "Eugene Emeralds",
    "homeId": 403,
    "awayId": 461,
    "venue": "Everett Memorial Stadium",
    "city": "Everett",
    "state": "Washington",
    "lat": 47.966664,
    "lon": -122.202786,
    "status": "Scheduled",
    "timeTBD": false
  },
  {
    "id": 824673,
    "date": "2026-06-05T18:20:00Z",
    "sportId": 1,
    "league": "MLB",
    "home": "Chicago Cubs",
    "away": "San Francisco Giants",
    "homeId": 112,
    "awayId": 137,
    "venue": "Wrigley Field",
    "city": "Chicago",
    "state": "Illinois",
    "lat": 41.948171,
    "lon": -87.655503,
    "status": "Scheduled",
    "timeTBD": false
  },
  {
    "id": 818460,
    "date": "2026-06-05T22:00:00Z",
    "sportId": 12,
    "league": "Double-A",
    "home": "Portland Sea Dogs",
    "away": "Hartford Yard Goats",
    "homeId": 546,
    "awayId": 538,
    "venue": "Delta Dental Park",
    "city": "Portland",
    "state": "Maine",
    "lat": 43.6562399,
    "lon": -70.27873,
    "status": "Scheduled",
    "timeTBD": false
  },
  {
    "id": 818532,
    "date": "2026-06-05T22:03:00Z",
    "sportId": 12,
    "league": "Double-A",
    "home": "New Hampshire Fisher Cats",
    "away": "Altoona Curve",
    "homeId": 463,
    "awayId": 452,
    "venue": "Delta Dental Stadium",
    "city": "Manchester",
    "state": "New Hampshire",
    "lat": 42.98115,
    "lon": -71.46653,
    "status": "Scheduled",
    "timeTBD": false
  },
  {
    "id": 815526,
    "date": "2026-06-05T22:05:00Z",
    "sportId": 11,
    "league": "Triple-A",
    "home": "Worcester Red Sox",
    "away": "Buffalo Bisons",
    "homeId": 533,
    "awayId": 422,
    "venue": "Polar Park",
    "city": "Worcester",
    "state": "Massachusetts",
    "lat": 42.25606,
    "lon": -71.80028,
    "status": "Scheduled",
    "timeTBD": false
  },
  {
    "id": 820337,
    "date": "2026-06-05T22:10:00Z",
    "sportId": 14,
    "league": "Single-A",
    "home": "St. Lucie Mets",
    "away": "Clearwater Threshers",
    "homeId": 507,
    "awayId": 566,
    "venue": "Clover Park",
    "city": "Port St. Lucie",
    "state": "Florida",
    "lat": 27.3249268,
    "lon": -80.4068854,
    "status": "Scheduled",
    "timeTBD": false
  },
  {
    "id": 819681,
    "date": "2026-06-05T22:30:00Z",
    "sportId": 13,
    "league": "High-A",
    "home": "Quad Cities River Bandits",
    "away": "South Bend Cubs",
    "homeId": 565,
    "awayId": 550,
    "venue": "Modern Woodmen Park",
    "city": "Davenport",
    "state": "Iowa",
    "lat": 41.51868,
    "lon": -90.58187,
    "status": "Scheduled",
    "timeTBD": false
  },
  {
    "id": 821760,
    "date": "2026-06-05T22:30:00Z",
    "sportId": 13,
    "league": "High-A",
    "home": "Winston-Salem Dash",
    "away": "Hub City Spartanburgers",
    "homeId": 580,
    "awayId": 6324,
    "venue": "Truist Stadium",
    "city": "Winston-Salem",
    "state": "North Carolina",
    "lat": 36.09182,
    "lon": -80.25527,
    "status": "Scheduled",
    "timeTBD": false
  },
  {
    "id": 820471,
    "date": "2026-06-05T22:30:00Z",
    "sportId": 14,
    "league": "Single-A",
    "home": "Lakeland Flying Tigers",
    "away": "Fort Myers Mighty Mussels",
    "homeId": 570,
    "awayId": 509,
    "venue": "Publix Field at Joker Marchant Stadium",
    "city": "Lakeland",
    "state": "Florida",
    "lat": 28.074822,
    "lon": -81.9508415,
    "status": "Scheduled",
    "timeTBD": false
  },
  {
    "id": 820265,
    "date": "2026-06-05T22:30:00Z",
    "sportId": 14,
    "league": "Single-A",
    "home": "Tampa Tarpons",
    "away": "Palm Beach Cardinals",
    "homeId": 587,
    "awayId": 279,
    "venue": "George M. Steinbrenner Field",
    "city": "Tampa",
    "state": "Florida",
    "lat": 27.97997,
    "lon": -82.50702,
    "status": "Scheduled",
    "timeTBD": false
  },
  {
    "id": 820536,
    "date": "2026-06-05T22:30:00Z",
    "sportId": 14,
    "league": "Single-A",
    "home": "Jupiter Hammerheads",
    "away": "Bradenton Marauders",
    "homeId": 479,
    "awayId": 3390,
    "venue": "Roger Dean Chevrolet Stadium",
    "city": "Jupiter",
    "state": "Florida",
    "lat": 26.890957,
    "lon": -80.116365,
    "status": "Scheduled",
    "timeTBD": false
  },
  {
    "id": 815671,
    "date": "2026-06-05T22:35:00Z",
    "sportId": 11,
    "league": "Triple-A",
    "home": "Syracuse Mets",
    "away": "Scranton/Wilkes-Barre RailRiders",
    "homeId": 552,
    "awayId": 531,
    "venue": "NBT Bank Stadium",
    "city": "Syracuse",
    "state": "New York",
    "lat": 43.079531,
    "lon": -76.165419,
    "status": "Scheduled",
    "timeTBD": false
  },
  {
    "id": 819636,
    "date": "2026-06-05T22:35:00Z",
    "sportId": 13,
    "league": "High-A",
    "home": "South Bend Cubs",
    "away": "Quad Cities River Bandits",
    "homeId": 550,
    "awayId": 565,
    "venue": "Modern Woodmen Park",
    "city": "Davenport",
    "state": "Iowa",
    "lat": 41.51868,
    "lon": -90.58187,
    "status": "Scheduled",
    "timeTBD": true
  },
  {
    "id": 822496,
    "date": "2026-06-05T22:35:00Z",
    "sportId": 13,
    "league": "High-A",
    "home": "Asheville Tourists",
    "away": "Greensboro Grasshoppers",
    "homeId": 573,
    "awayId": 477,
    "venue": "HomeTrust Park",
    "city": "Asheville",
    "state": "North Carolina",
    "lat": 35.58668,
    "lon": -82.5501,
    "status": "Scheduled",
    "timeTBD": false
  },
  {
    "id": 819546,
    "date": "2026-06-05T22:35:00Z",
    "sportId": 13,
    "league": "High-A",
    "home": "West Michigan Whitecaps",
    "away": "Dayton Dragons",
    "homeId": 582,
    "awayId": 459,
    "venue": "LMCU Ballpark",
    "city": "Comstock Park",
    "state": "Michigan",
    "lat": 43.040797,
    "lon": -85.65933,
    "status": "Scheduled",
    "timeTBD": false
  },
  {
    "id": 821836,
    "date": "2026-06-05T22:35:00Z",
    "sportId": 13,
    "league": "High-A",
    "home": "Wilmington Blue Rocks",
    "away": "Bowling Green Hot Rods",
    "homeId": 426,
    "awayId": 2498,
    "venue": "Frawley Stadium",
    "city": "Wilmington",
    "state": "Delaware",
    "lat": 39.731809,
    "lon": -75.564174,
    "status": "Scheduled",
    "timeTBD": false
  },
  {
    "id": 827200,
    "date": "2026-06-05T22:35:00Z",
    "sportId": 14,
    "league": "Single-A",
    "home": "Fredericksburg Nationals",
    "away": "Hill City Howlers",
    "homeId": 436,
    "awayId": 481,
    "venue": "Virginia Credit Union Stadium",
    "city": "Fredericksburg",
    "state": "Virginia",
    "lat": 38.3181302,
    "lon": -77.5124029,
    "status": "Scheduled",
    "timeTBD": false
  },
  {
    "id": 824271,
    "date": "2026-06-05T22:40:00Z",
    "sportId": 1,
    "league": "MLB",
    "home": "Detroit Tigers",
    "away": "Seattle Mariners",
    "homeId": 116,
    "awayId": 136,
    "venue": "Comerica Park",
    "city": "Detroit",
    "state": "Michigan",
    "lat": 42.3391151,
    "lon": -83.048695,
    "status": "Scheduled",
    "timeTBD": false
  },
  {
    "id": 823455,
    "date": "2026-06-05T22:40:00Z",
    "sportId": 1,
    "league": "MLB",
    "home": "Philadelphia Phillies",
    "away": "Chicago White Sox",
    "homeId": 143,
    "awayId": 145,
    "venue": "Citizens Bank Park",
    "city": "Philadelphia",
    "state": "Pennsylvania",
    "lat": 39.90539086,
    "lon": -75.16716957,
    "status": "Scheduled",
    "timeTBD": false
  },
  {
    "id": 816717,
    "date": "2026-06-05T22:45:00Z",
    "sportId": 11,
    "league": "Triple-A",
    "home": "Durham Bulls",
    "away": "Charlotte Knights",
    "homeId": 234,
    "awayId": 494,
    "venue": "Durham Bulls Athletic Park",
    "city": "Durham",
    "state": "North Carolina",
    "lat": 35.99158,
    "lon": -78.90401,
    "status": "Scheduled",
    "timeTBD": false
  },
  {
    "id": 816351,
    "date": "2026-06-05T22:45:00Z",
    "sportId": 11,
    "league": "Triple-A",
    "home": "Lehigh Valley IronPigs",
    "away": "Rochester Red Wings",
    "homeId": 1410,
    "awayId": 534,
    "venue": "Coca-Cola Park",
    "city": "Allentown",
    "state": "Pennsylvania",
    "lat": 40.6253183,
    "lon": -75.4516154,
    "status": "Scheduled",
    "timeTBD": false
  },
  {
    "id": 821900,
    "date": "2026-06-05T22:45:00Z",
    "sportId": 13,
    "league": "High-A",
    "home": "Rome Emperors",
    "away": "Greenville Drive",
    "homeId": 432,
    "awayId": 428,
    "venue": "AdventHealth Stadium",
    "city": "Rome",
    "state": "Georgia",
    "lat": 34.285832,
    "lon": -85.167211,
    "status": "Scheduled",
    "timeTBD": false
  },
  {
    "id": 818882,
    "date": "2026-06-05T23:00:00Z",
    "sportId": 12,
    "league": "Double-A",
    "home": "Binghamton Rumble Ponies",
    "away": "Reading Fightin Phils",
    "homeId": 505,
    "awayId": 522,
    "venue": "Mirabito Stadium",
    "city": "Binghamton",
    "state": "New York",
    "lat": 42.1031199,
    "lon": -75.90379,
    "status": "Scheduled",
    "timeTBD": false
  },
  {
    "id": 817909,
    "date": "2026-06-05T23:00:00Z",
    "sportId": 12,
    "league": "Double-A",
    "home": "Knoxville Smokies",
    "away": "Birmingham Barons",
    "homeId": 553,
    "awayId": 247,
    "venue": "Covenant Health Park",
    "city": "Knoxville",
    "state": "Tennessee",
    "lat": 35.97248459516771,
    "lon": -83.91495041686319,
    "status": "Scheduled",
    "timeTBD": false
  },
  {
    "id": 818671,
    "date": "2026-06-05T23:00:00Z",
    "sportId": 12,
    "league": "Double-A",
    "home": "Harrisburg Senators",
    "away": "Somerset Patriots",
    "homeId": 547,
    "awayId": 1956,
    "venue": "FNB Field",
    "city": "Harrisburg",
    "state": "Pennsylvania",
    "lat": 40.2568294,
    "lon": -76.8896522,
    "status": "Scheduled",
    "timeTBD": false
  },
  {
    "id": 822291,
    "date": "2026-06-05T23:00:00Z",
    "sportId": 13,
    "league": "High-A",
    "home": "Frederick Keys",
    "away": "Hudson Valley Renegades",
    "homeId": 493,
    "awayId": 537,
    "venue": "Nymeo Field",
    "city": "Frederick",
    "state": "Maryland",
    "lat": null,
    "lon": null,
    "status": "Scheduled",
    "timeTBD": false
  },
  {
    "id": 827133,
    "date": "2026-06-05T23:00:00Z",
    "sportId": 14,
    "league": "Single-A",
    "home": "Hickory Crawdads",
    "away": "Kannapolis Cannon Ballers",
    "homeId": 448,
    "awayId": 487,
    "venue": "L.P. Frans Stadium",
    "city": "Hickory",
    "state": "North Carolina",
    "lat": 35.747289,
    "lon": -81.3778848,
    "status": "Scheduled",
    "timeTBD": false
  },
  {
    "id": 823538,
    "date": "2026-06-05T23:05:00Z",
    "sportId": 1,
    "league": "MLB",
    "home": "New York Yankees",
    "away": "Boston Red Sox",
    "homeId": 147,
    "awayId": 111,
    "venue": "Yankee Stadium",
    "city": "Bronx",
    "state": "New York",
    "lat": 40.82919482,
    "lon": -73.9264977,
    "status": "Scheduled",
    "timeTBD": false
  },
  {
    "id": 816801,
    "date": "2026-06-05T23:05:00Z",
    "sportId": 11,
    "league": "Triple-A",
    "home": "Columbus Clippers",
    "away": "Omaha Storm Chasers",
    "homeId": 445,
    "awayId": 541,
    "venue": "Huntington Park",
    "city": "Columbus",
    "state": "Ohio",
    "lat": 39.96868,
    "lon": -83.01102,
    "status": "Scheduled",
    "timeTBD": false
  },
  {
    "id": 816425,
    "date": "2026-06-05T23:05:00Z",
    "sportId": 11,
    "league": "Triple-A",
    "home": "Jacksonville Jumbo Shrimp",
    "away": "Nashville Sounds",
    "homeId": 564,
    "awayId": 556,
    "venue": "Vystar Ballpark",
    "city": "Jacksonville",
    "state": "Florida",
    "lat": 30.32533,
    "lon": -81.64256,
    "status": "Scheduled",
    "timeTBD": false
  },
  {
    "id": 816649,
    "date": "2026-06-05T23:05:00Z",
    "sportId": 11,
    "league": "Triple-A",
    "home": "Gwinnett Stripers",
    "away": "Norfolk Tides",
    "homeId": 431,
    "awayId": 568,
    "venue": "Gwinnett Field",
    "city": "Lawrenceville",
    "state": "Georgia",
    "lat": 34.0409586,
    "lon": -83.9937909,
    "status": "Scheduled",
    "timeTBD": false
  },
  {
    "id": 818814,
    "date": "2026-06-05T23:05:00Z",
    "sportId": 12,
    "league": "Double-A",
    "home": "Chesapeake Baysox",
    "away": "Akron RubberDucks",
    "homeId": 418,
    "awayId": 402,
    "venue": "Prince George's Stadium",
    "city": "Bowie",
    "state": "Maryland",
    "lat": 38.946114,
    "lon": -76.709334,
    "status": "Scheduled",
    "timeTBD": false
  },
  {
    "id": 818333,
    "date": "2026-06-05T23:05:00Z",
    "sportId": 12,
    "league": "Double-A",
    "home": "Richmond Flying Squirrels",
    "away": "Erie SeaWolves",
    "homeId": 3410,
    "awayId": 106,
    "venue": "CarMax Park",
    "city": "Richmond",
    "state": "Virginia",
    "lat": null,
    "lon": null,
    "status": "Scheduled",
    "timeTBD": false
  },
  {
    "id": 817777,
    "date": "2026-06-05T23:05:00Z",
    "sportId": 12,
    "league": "Double-A",
    "home": "Pensacola Blue Wahoos",
    "away": "Chattanooga Lookouts",
    "homeId": 4124,
    "awayId": 498,
    "venue": "Blue Wahoos Stadium",
    "city": "Pensacola",
    "state": "Florida",
    "lat": 30.4048409,
    "lon": -87.2188349,
    "status": "Scheduled",
    "timeTBD": false
  },
  {
    "id": 821957,
    "date": "2026-06-05T23:05:00Z",
    "sportId": 13,
    "league": "High-A",
    "home": "Jersey Shore BlueClaws",
    "away": "Brooklyn Cyclones",
    "homeId": 427,
    "awayId": 453,
    "venue": "ShoreTown Ballpark",
    "city": "Lakewood",
    "state": "New Jersey",
    "lat": 40.07495,
    "lon": -74.18846,
    "status": "Scheduled",
    "timeTBD": false
  },
  {
    "id": 819942,
    "date": "2026-06-05T23:05:00Z",
    "sportId": 13,
    "league": "High-A",
    "home": "Great Lakes Loons",
    "away": "Lansing Lugnuts",
    "homeId": 456,
    "awayId": 499,
    "venue": "Dow Diamond",
    "city": "Midland",
    "state": "Michigan",
    "lat": 43.6089355,
    "lon": -84.2397878,
    "status": "Scheduled",
    "timeTBD": false
  },
  {
    "id": 820004,
    "date": "2026-06-05T23:05:00Z",
    "sportId": 13,
    "league": "High-A",
    "home": "Fort Wayne TinCaps",
    "away": "Lake County Captains",
    "homeId": 584,
    "awayId": 437,
    "venue": "Parkview Field",
    "city": "Fort Wayne",
    "state": "Indiana",
    "lat": 41.07345,
    "lon": -85.14366,
    "status": "Scheduled",
    "timeTBD": false
  },
  {
    "id": 826801,
    "date": "2026-06-05T23:05:00Z",
    "sportId": 14,
    "league": "Single-A",
    "home": "Wilson Warbirds",
    "away": "Salem RidgeYaks",
    "homeId": 249,
    "awayId": 414,
    "venue": "Wilson Ballpark",
    "city": "Wilson",
    "state": "North Carolina",
    "lat": null,
    "lon": null,
    "status": "Scheduled",
    "timeTBD": false
  },
  {
    "id": 827474,
    "date": "2026-06-05T23:05:00Z",
    "sportId": 14,
    "league": "Single-A",
    "home": "Charleston RiverDogs",
    "away": "Myrtle Beach Pelicans",
    "homeId": 233,
    "awayId": 521,
    "venue": "Joseph P. Riley, Jr. Ballpark",
    "city": "Charleston",
    "state": "South Carolina",
    "lat": 32.790421,
    "lon": -79.961332,
    "status": "Scheduled",
    "timeTBD": false
  },
  {
    "id": 827537,
    "date": "2026-06-05T23:05:00Z",
    "sportId": 14,
    "league": "Single-A",
    "home": "Augusta GreenJackets",
    "away": "Delmarva Shorebirds",
    "homeId": 478,
    "awayId": 548,
    "venue": "SRP Park",
    "city": "North Augusta",
    "state": "South Carolina",
    "lat": 33.4844619,
    "lon": -81.9764372,
    "status": "Scheduled",
    "timeTBD": false
  },
  {
    "id": 827259,
    "date": "2026-06-05T23:05:00Z",
    "sportId": 14,
    "league": "Single-A",
    "home": "Fayetteville Woodpeckers",
    "away": "Columbia Fireflies",
    "homeId": 3712,
    "awayId": 3705,
    "venue": "SEGRA Stadium",
    "city": "Fayetteville",
    "state": "North Carolina",
    "lat": 35.054357,
    "lon": -78.8851444,
    "status": "Scheduled",
    "timeTBD": false
  },
  {
    "id": 822810,
    "date": "2026-06-05T23:07:00Z",
    "sportId": 1,
    "league": "MLB",
    "home": "Toronto Blue Jays",
    "away": "Baltimore Orioles",
    "homeId": 141,
    "awayId": 110,
    "venue": "Rogers Centre",
    "city": "Toronto",
    "state": "Ontario",
    "lat": 43.64155,
    "lon": -79.38915,
    "status": "Scheduled",
    "timeTBD": false
  },
  {
    "id": 823860,
    "date": "2026-06-05T23:10:00Z",
    "sportId": 1,
    "league": "MLB",
    "home": "Miami Marlins",
    "away": "Tampa Bay Rays",
    "homeId": 146,
    "awayId": 139,
    "venue": "loanDepot park",
    "city": "Miami",
    "state": "Florida",
    "lat": 25.77796236,
    "lon": -80.21951795,
    "status": "Scheduled",
    "timeTBD": false
  },
  {
    "id": 824914,
    "date": "2026-06-05T23:15:00Z",
    "sportId": 1,
    "league": "MLB",
    "home": "Atlanta Braves",
    "away": "Pittsburgh Pirates",
    "homeId": 144,
    "awayId": 134,
    "venue": "Truist Park",
    "city": "Atlanta",
    "state": "Georgia",
    "lat": 33.890672,
    "lon": -84.467641,
    "status": "Scheduled",
    "timeTBD": false
  },
  {
    "id": 820670,
    "date": "2026-06-05T23:15:00Z",
    "sportId": 14,
    "league": "Single-A",
    "home": "Dunedin Blue Jays",
    "away": "Daytona Tortugas",
    "homeId": 424,
    "awayId": 450,
    "venue": "TD Ballpark",
    "city": "Dunedin",
    "state": "Florida",
    "lat": 27.9745812,
    "lon": -82.7913301,
    "status": "Scheduled",
    "timeTBD": false
  },
  {
    "id": 817020,
    "date": "2026-06-05T23:35:00Z",
    "sportId": 12,
    "league": "Double-A",
    "home": "Wichita Wind Surge",
    "away": "San Antonio Missions",
    "homeId": 3898,
    "awayId": 510,
    "venue": "Equity Bank Park",
    "city": "Wichita",
    "state": "Kansas",
    "lat": 37.6813367,
    "lon": -97.3475531,
    "status": "Scheduled",
    "timeTBD": false
  },
  {
    "id": 818187,
    "date": "2026-06-05T23:35:00Z",
    "sportId": 12,
    "league": "Double-A",
    "home": "Biloxi Shuckers",
    "away": "Montgomery Biscuits",
    "homeId": 5015,
    "awayId": 421,
    "venue": "Keesler Federal Park",
    "city": "Biloxi",
    "state": "Mississippi",
    "lat": 30.395421,
    "lon": -88.893217,
    "status": "Scheduled",
    "timeTBD": false
  },
  {
    "id": 817709,
    "date": "2026-06-05T23:35:00Z",
    "sportId": 12,
    "league": "Double-A",
    "home": "Rocket City Trash Pandas",
    "away": "Columbus Clingstones",
    "homeId": 559,
    "awayId": 6325,
    "venue": "Toyota Field",
    "city": "Madison",
    "state": "Alabama",
    "lat": 34.6837403,
    "lon": -86.7274237,
    "status": "Scheduled",
    "timeTBD": false
  },
  {
    "id": 820137,
    "date": "2026-06-05T23:35:00Z",
    "sportId": 13,
    "league": "High-A",
    "home": "Cedar Rapids Kernels",
    "away": "Wisconsin Timber Rattlers",
    "homeId": 492,
    "awayId": 572,
    "venue": "Veterans Memorial Stadium",
    "city": "Cedar Rapids",
    "state": "Iowa",
    "lat": 41.96785,
    "lon": -91.68662,
    "status": "Scheduled",
    "timeTBD": false
  },
  {
    "id": 815225,
    "date": "2026-06-06T00:05:00Z",
    "sportId": 11,
    "league": "Triple-A",
    "home": "Oklahoma City Comets",
    "away": "Round Rock Express",
    "homeId": 238,
    "awayId": 102,
    "venue": "Chickasaw Bricktown Ballpark",
    "city": "Oklahoma City",
    "state": "Oklahoma",
    "lat": 35.46511,
    "lon": -97.50762,
    "status": "Scheduled",
    "timeTBD": false
  },
  {
    "id": 816198,
    "date": "2026-06-06T00:05:00Z",
    "sportId": 11,
    "league": "Triple-A",
    "home": "Memphis Redbirds",
    "away": "Louisville Bats",
    "homeId": 235,
    "awayId": 416,
    "venue": "AutoZone Park",
    "city": "Memphis",
    "state": "Tennessee",
    "lat": 35.14297,
    "lon": -90.04924,
    "status": "Scheduled",
    "timeTBD": false
  },
  {
    "id": 817432,
    "date": "2026-06-06T00:05:00Z",
    "sportId": 12,
    "league": "Double-A",
    "home": "Frisco RoughRiders",
    "away": "Springfield Cardinals",
    "homeId": 540,
    "awayId": 440,
    "venue": "Riders Field",
    "city": "Frisco",
    "state": "Texas",
    "lat": 33.0984,
    "lon": -96.8197,
    "status": "Scheduled",
    "timeTBD": false
  },
  {
    "id": 817497,
    "date": "2026-06-06T00:05:00Z",
    "sportId": 12,
    "league": "Double-A",
    "home": "Corpus Christi Hooks",
    "away": "Arkansas Travelers",
    "homeId": 482,
    "awayId": 574,
    "venue": "Whataburger Field",
    "city": "Corpus Christi",
    "state": "Texas",
    "lat": 27.80995,
    "lon": -97.39941,
    "status": "Scheduled",
    "timeTBD": false
  },
  {
    "id": 817301,
    "date": "2026-06-06T00:05:00Z",
    "sportId": 12,
    "league": "Double-A",
    "home": "Northwest Arkansas Naturals",
    "away": "Midland RockHounds",
    "homeId": 1350,
    "awayId": 237,
    "venue": "Arvest Ballpark",
    "city": "Springdale",
    "state": "Arkansas",
    "lat": 36.15968,
    "lon": -94.194624,
    "status": "Scheduled",
    "timeTBD": false
  },
  {
    "id": 817645,
    "date": "2026-06-06T00:05:00Z",
    "sportId": 12,
    "league": "Double-A",
    "home": "Amarillo Sod Poodles",
    "away": "Tulsa Drillers",
    "homeId": 5368,
    "awayId": 260,
    "venue": "Hodgetown",
    "city": "Amarillo",
    "state": "Texas",
    "lat": 35.2050189,
    "lon": -101.8339567,
    "status": "Scheduled",
    "timeTBD": false
  },
  {
    "id": 819746,
    "date": "2026-06-06T00:05:00Z",
    "sportId": 13,
    "league": "High-A",
    "home": "Peoria Chiefs",
    "away": "Beloit Sky Carp",
    "homeId": 443,
    "awayId": 554,
    "venue": "Dozer Park",
    "city": "Peoria",
    "state": "Illinois",
    "lat": 40.68751,
    "lon": -89.59781,
    "status": "Scheduled",
    "timeTBD": false
  },
  {
    "id": 815743,
    "date": "2026-06-06T00:07:00Z",
    "sportId": 11,
    "league": "Triple-A",
    "home": "St. Paul Saints",
    "away": "Indianapolis Indians",
    "homeId": 1960,
    "awayId": 484,
    "venue": "CHS Field",
    "city": "St. Paul",
    "state": "Minnesota",
    "lat": 44.95089651,
    "lon": -93.08457526,
    "status": "Scheduled",
    "timeTBD": false
  },
  {
    "id": 816496,
    "date": "2026-06-06T00:08:00Z",
    "sportId": 11,
    "league": "Triple-A",
    "home": "Iowa Cubs",
    "away": "Toledo Mud Hens",
    "homeId": 451,
    "awayId": 512,
    "venue": "Principal Park",
    "city": "Des Moines",
    "state": "Iowa",
    "lat": 41.57998,
    "lon": -93.61619,
    "status": "Scheduled",
    "timeTBD": false
  },
  {
    "id": 824186,
    "date": "2026-06-06T00:10:00Z",
    "sportId": 1,
    "league": "MLB",
    "home": "Houston Astros",
    "away": "Athletics",
    "homeId": 117,
    "awayId": 133,
    "venue": "Daikin Park",
    "city": "Houston",
    "state": "Texas",
    "lat": 29.756967,
    "lon": -95.355509,
    "status": "Scheduled",
    "timeTBD": false
  },
  {
    "id": 823049,
    "date": "2026-06-06T00:15:00Z",
    "sportId": 1,
    "league": "MLB",
    "home": "St. Louis Cardinals",
    "away": "Cincinnati Reds",
    "homeId": 138,
    "awayId": 113,
    "venue": "Busch Stadium",
    "city": "St. Louis",
    "state": "Missouri",
    "lat": 38.62256667,
    "lon": -90.19286667,
    "status": "Scheduled",
    "timeTBD": false
  },
  {
    "id": 822892,
    "date": "2026-06-06T00:15:00Z",
    "sportId": 1,
    "league": "MLB",
    "home": "Texas Rangers",
    "away": "Cleveland Guardians",
    "homeId": 140,
    "awayId": 114,
    "venue": "Globe Life Field",
    "city": "Arlington",
    "state": "Texas",
    "lat": 32.747299,
    "lon": -97.081818,
    "status": "Scheduled",
    "timeTBD": false
  },
  {
    "id": 823699,
    "date": "2026-06-06T00:15:00Z",
    "sportId": 1,
    "league": "MLB",
    "home": "Minnesota Twins",
    "away": "Kansas City Royals",
    "homeId": 142,
    "awayId": 118,
    "venue": "Target Field",
    "city": "Minneapolis",
    "state": "Minnesota",
    "lat": 44.981829,
    "lon": -93.277891,
    "status": "Scheduled",
    "timeTBD": false
  },
  {
    "id": 814919,
    "date": "2026-06-06T00:35:00Z",
    "sportId": 11,
    "league": "Triple-A",
    "home": "Salt Lake Bees",
    "away": "Albuquerque Isotopes",
    "homeId": 561,
    "awayId": 342,
    "venue": "The Ballpark at America First Square",
    "city": "South Jordan",
    "state": "Utah",
    "lat": 40.549066970052124,
    "lon": -112.02301999999999,
    "status": "Scheduled",
    "timeTBD": false
  },
  {
    "id": 815375,
    "date": "2026-06-06T00:35:00Z",
    "sportId": 11,
    "league": "Triple-A",
    "home": "El Paso Chihuahuas",
    "away": "Sugar Land Space Cowboys",
    "homeId": 4904,
    "awayId": 5434,
    "venue": "Southwest University Park",
    "city": "El Paso",
    "state": "Texas",
    "lat": 31.759277,
    "lon": -106.492526,
    "status": "Scheduled",
    "timeTBD": false
  },
  {
    "id": 824350,
    "date": "2026-06-06T00:40:00Z",
    "sportId": 1,
    "league": "MLB",
    "home": "Colorado Rockies",
    "away": "Milwaukee Brewers",
    "homeId": 115,
    "awayId": 158,
    "venue": "Coors Field",
    "city": "Denver",
    "state": "Colorado",
    "lat": 39.756042,
    "lon": -104.994136,
    "status": "Scheduled",
    "timeTBD": false
  },
  {
    "id": 819141,
    "date": "2026-06-06T01:30:00Z",
    "sportId": 13,
    "league": "High-A",
    "home": "Tri-City Dust Devils",
    "away": "Vancouver Canadians",
    "homeId": 460,
    "awayId": 435,
    "venue": "Gesa Stadium",
    "city": "Pasco",
    "state": "Washington",
    "lat": 46.27032,
    "lon": -119.17079,
    "status": "Scheduled",
    "timeTBD": false
  },
  {
    "id": 821128,
    "date": "2026-06-06T01:30:00Z",
    "sportId": 14,
    "league": "Single-A",
    "home": "Rancho Cucamonga Quakes",
    "away": "Visalia Rawhide",
    "homeId": 526,
    "awayId": 516,
    "venue": "Morongo Field",
    "city": "Rancho Cucamonga",
    "state": "California",
    "lat": 34.102721,
    "lon": -117.54792,
    "status": "Scheduled",
    "timeTBD": false
  },
  {
    "id": 819222,
    "date": "2026-06-06T01:35:00Z",
    "sportId": 13,
    "league": "High-A",
    "home": "Spokane Indians",
    "away": "Hillsboro Hops",
    "homeId": 486,
    "awayId": 419,
    "venue": "Avista Stadium",
    "city": "Spokane",
    "state": "Washington",
    "lat": 47.661351,
    "lon": -117.344426,
    "status": "Scheduled",
    "timeTBD": false
  },
  {
    "id": 821199,
    "date": "2026-06-06T01:35:00Z",
    "sportId": 14,
    "league": "Single-A",
    "home": "Ontario Tower Buzzers",
    "away": "Stockton Ports",
    "homeId": 6482,
    "awayId": 524,
    "venue": "ONT Field",
    "city": "Ontario",
    "state": "California",
    "lat": 34.0184639834586,
    "lon": -117.60331808557788,
    "status": "Scheduled",
    "timeTBD": false
  },
  {
    "id": 825073,
    "date": "2026-06-06T01:40:00Z",
    "sportId": 1,
    "league": "MLB",
    "home": "Arizona Diamondbacks",
    "away": "Washington Nationals",
    "homeId": 109,
    "awayId": 120,
    "venue": "Chase Field",
    "city": "Phoenix",
    "state": "Arizona",
    "lat": 33.445302,
    "lon": -112.066687,
    "status": "Scheduled",
    "timeTBD": false
  },
  {
    "id": 823293,
    "date": "2026-06-06T01:40:00Z",
    "sportId": 1,
    "league": "MLB",
    "home": "San Diego Padres",
    "away": "New York Mets",
    "homeId": 135,
    "awayId": 121,
    "venue": "Petco Park",
    "city": "San Diego",
    "state": "California",
    "lat": 32.707861,
    "lon": -117.157278,
    "status": "Scheduled",
    "timeTBD": false
  },
  {
    "id": 814997,
    "date": "2026-06-06T01:45:00Z",
    "sportId": 11,
    "league": "Triple-A",
    "home": "Sacramento River Cats",
    "away": "Tacoma Rainiers",
    "homeId": 105,
    "awayId": 529,
    "venue": "Sutter Health Park",
    "city": "Sacramento",
    "state": "California",
    "lat": 38.57994,
    "lon": -121.51246,
    "status": "Scheduled",
    "timeTBD": false
  },
  {
    "id": 821063,
    "date": "2026-06-06T02:00:00Z",
    "sportId": 14,
    "league": "Single-A",
    "home": "San Jose Giants",
    "away": "Inland Empire 66ers",
    "homeId": 476,
    "awayId": 401,
    "venue": "Excite Ballpark",
    "city": "San Jose",
    "state": "California",
    "lat": 37.32128,
    "lon": -121.862286,
    "status": "Scheduled",
    "timeTBD": false
  },
  {
    "id": 815292,
    "date": "2026-06-06T02:05:00Z",
    "sportId": 11,
    "league": "Triple-A",
    "home": "Las Vegas Aviators",
    "away": "Reno Aces",
    "homeId": 400,
    "awayId": 2310,
    "venue": "Las Vegas Ballpark",
    "city": "Las Vegas",
    "state": "Nevada",
    "lat": 36.152607,
    "lon": -115.329888,
    "status": "Scheduled",
    "timeTBD": false
  },
  {
    "id": 819344,
    "date": "2026-06-06T02:05:00Z",
    "sportId": 13,
    "league": "High-A",
    "home": "Everett AquaSox",
    "away": "Eugene Emeralds",
    "homeId": 403,
    "awayId": 461,
    "venue": "Everett Memorial Stadium",
    "city": "Everett",
    "state": "Washington",
    "lat": 47.966664,
    "lon": -122.202786,
    "status": "Scheduled",
    "timeTBD": false
  },
  {
    "id": 821399,
    "date": "2026-06-06T02:05:00Z",
    "sportId": 14,
    "league": "Single-A",
    "home": "Fresno Grizzlies",
    "away": "Lake Elsinore Storm",
    "homeId": 259,
    "awayId": 103,
    "venue": "Chukchansi Park",
    "city": "Fresno",
    "state": "California",
    "lat": 36.73256,
    "lon": -119.79157,
    "status": "Scheduled",
    "timeTBD": false
  },
  {
    "id": 823943,
    "date": "2026-06-06T02:10:00Z",
    "sportId": 1,
    "league": "MLB",
    "home": "Los Angeles Dodgers",
    "away": "Los Angeles Angels",
    "homeId": 119,
    "awayId": 108,
    "venue": "UNIQLO Field at Dodger Stadium",
    "city": "Los Angeles",
    "state": "California",
    "lat": 34.07368,
    "lon": -118.24053,
    "status": "Scheduled",
    "timeTBD": false
  },
  {
    "id": 824269,
    "date": "2026-06-06T17:10:00Z",
    "sportId": 1,
    "league": "MLB",
    "home": "Detroit Tigers",
    "away": "Seattle Mariners",
    "homeId": 116,
    "awayId": 136,
    "venue": "Comerica Park",
    "city": "Detroit",
    "state": "Michigan",
    "lat": 42.3391151,
    "lon": -83.048695,
    "status": "Scheduled",
    "timeTBD": false
  },
  {
    "id": 823697,
    "date": "2026-06-06T18:10:00Z",
    "sportId": 1,
    "league": "MLB",
    "home": "Minnesota Twins",
    "away": "Kansas City Royals",
    "homeId": 142,
    "awayId": 118,
    "venue": "Target Field",
    "city": "Minneapolis",
    "state": "Minnesota",
    "lat": 44.981829,
    "lon": -93.277891,
    "status": "Scheduled",
    "timeTBD": false
  },
  {
    "id": 823048,
    "date": "2026-06-06T18:15:00Z",
    "sportId": 1,
    "league": "MLB",
    "home": "St. Louis Cardinals",
    "away": "Cincinnati Reds",
    "homeId": 138,
    "awayId": 113,
    "venue": "Busch Stadium",
    "city": "St. Louis",
    "state": "Missouri",
    "lat": 38.62256667,
    "lon": -90.19286667,
    "status": "Scheduled",
    "timeTBD": false
  },
  {
    "id": 824669,
    "date": "2026-06-06T18:20:00Z",
    "sportId": 1,
    "league": "MLB",
    "home": "Chicago Cubs",
    "away": "San Francisco Giants",
    "homeId": 112,
    "awayId": 137,
    "venue": "Wrigley Field",
    "city": "Chicago",
    "state": "Illinois",
    "lat": 41.948171,
    "lon": -87.655503,
    "status": "Scheduled",
    "timeTBD": false
  },
  {
    "id": 822808,
    "date": "2026-06-06T19:07:00Z",
    "sportId": 1,
    "league": "MLB",
    "home": "Toronto Blue Jays",
    "away": "Baltimore Orioles",
    "homeId": 141,
    "awayId": 110,
    "venue": "Rogers Centre",
    "city": "Toronto",
    "state": "Ontario",
    "lat": 43.64155,
    "lon": -79.38915,
    "status": "Scheduled",
    "timeTBD": false
  },
  {
    "id": 823454,
    "date": "2026-06-06T20:05:00Z",
    "sportId": 1,
    "league": "MLB",
    "home": "Philadelphia Phillies",
    "away": "Chicago White Sox",
    "homeId": 143,
    "awayId": 145,
    "venue": "Citizens Bank Park",
    "city": "Philadelphia",
    "state": "Pennsylvania",
    "lat": 39.90539086,
    "lon": -75.16716957,
    "status": "Scheduled",
    "timeTBD": false
  },
  {
    "id": 815522,
    "date": "2026-06-06T20:05:00Z",
    "sportId": 11,
    "league": "Triple-A",
    "home": "Worcester Red Sox",
    "away": "Buffalo Bisons",
    "homeId": 533,
    "awayId": 422,
    "venue": "Polar Park",
    "city": "Worcester",
    "state": "Massachusetts",
    "lat": 42.25606,
    "lon": -71.80028,
    "status": "Scheduled",
    "timeTBD": false
  },
  {
    "id": 825075,
    "date": "2026-06-06T20:10:00Z",
    "sportId": 1,
    "league": "MLB",
    "home": "Arizona Diamondbacks",
    "away": "Washington Nationals",
    "homeId": 109,
    "awayId": 120,
    "venue": "Chase Field",
    "city": "Phoenix",
    "state": "Arizona",
    "lat": 33.445302,
    "lon": -112.066687,
    "status": "Scheduled",
    "timeTBD": false
  },
  {
    "id": 824184,
    "date": "2026-06-06T20:10:00Z",
    "sportId": 1,
    "league": "MLB",
    "home": "Houston Astros",
    "away": "Athletics",
    "homeId": 117,
    "awayId": 133,
    "venue": "Daikin Park",
    "city": "Houston",
    "state": "Texas",
    "lat": 29.756967,
    "lon": -95.355509,
    "status": "Scheduled",
    "timeTBD": false
  },
  {
    "id": 824915,
    "date": "2026-06-06T20:10:00Z",
    "sportId": 1,
    "league": "MLB",
    "home": "Atlanta Braves",
    "away": "Pittsburgh Pirates",
    "homeId": 144,
    "awayId": 134,
    "venue": "Truist Park",
    "city": "Atlanta",
    "state": "Georgia",
    "lat": 33.890672,
    "lon": -84.467641,
    "status": "Scheduled",
    "timeTBD": false
  },
  {
    "id": 823859,
    "date": "2026-06-06T20:10:00Z",
    "sportId": 1,
    "league": "MLB",
    "home": "Miami Marlins",
    "away": "Tampa Bay Rays",
    "homeId": 146,
    "awayId": 139,
    "venue": "loanDepot park",
    "city": "Miami",
    "state": "Florida",
    "lat": 25.77796236,
    "lon": -80.21951795,
    "status": "Scheduled",
    "timeTBD": false
  },
  {
    "id": 817024,
    "date": "2026-06-06T21:05:00Z",
    "sportId": 12,
    "league": "Double-A",
    "home": "Wichita Wind Surge",
    "away": "San Antonio Missions",
    "homeId": 3898,
    "awayId": 510,
    "venue": "Equity Bank Park",
    "city": "Wichita",
    "state": "Kansas",
    "lat": 37.6813367,
    "lon": -97.3475531,
    "status": "Scheduled",
    "timeTBD": false
  },
  {
    "id": 818462,
    "date": "2026-06-06T22:00:00Z",
    "sportId": 12,
    "league": "Double-A",
    "home": "Portland Sea Dogs",
    "away": "Hartford Yard Goats",
    "homeId": 546,
    "awayId": 538,
    "venue": "Delta Dental Park",
    "city": "Portland",
    "state": "Maine",
    "lat": 43.6562399,
    "lon": -70.27873,
    "status": "Scheduled",
    "timeTBD": false
  },
  {
    "id": 818673,
    "date": "2026-06-06T22:00:00Z",
    "sportId": 12,
    "league": "Double-A",
    "home": "Harrisburg Senators",
    "away": "Somerset Patriots",
    "homeId": 547,
    "awayId": 1956,
    "venue": "FNB Field",
    "city": "Harrisburg",
    "state": "Pennsylvania",
    "lat": 40.2568294,
    "lon": -76.8896522,
    "status": "Scheduled",
    "timeTBD": false
  },
  {
    "id": 822288,
    "date": "2026-06-06T22:00:00Z",
    "sportId": 13,
    "league": "High-A",
    "home": "Frederick Keys",
    "away": "Hudson Valley Renegades",
    "homeId": 493,
    "awayId": 537,
    "venue": "Nymeo Field",
    "city": "Frederick",
    "state": "Maryland",
    "lat": null,
    "lon": null,
    "status": "Scheduled",
    "timeTBD": false
  },
  {
    "id": 820468,
    "date": "2026-06-06T22:00:00Z",
    "sportId": 14,
    "league": "Single-A",
    "home": "Lakeland Flying Tigers",
    "away": "Fort Myers Mighty Mussels",
    "homeId": 570,
    "awayId": 509,
    "venue": "Publix Field at Joker Marchant Stadium",
    "city": "Lakeland",
    "state": "Florida",
    "lat": 28.074822,
    "lon": -81.9508415,
    "status": "Scheduled",
    "timeTBD": false
  },
  {
    "id": 820539,
    "date": "2026-06-06T22:00:00Z",
    "sportId": 14,
    "league": "Single-A",
    "home": "Jupiter Hammerheads",
    "away": "Bradenton Marauders",
    "homeId": 479,
    "awayId": 3390,
    "venue": "Roger Dean Chevrolet Stadium",
    "city": "Jupiter",
    "state": "Florida",
    "lat": 26.890957,
    "lon": -80.116365,
    "status": "Scheduled",
    "timeTBD": false
  },
  {
    "id": 818529,
    "date": "2026-06-06T22:03:00Z",
    "sportId": 12,
    "league": "Double-A",
    "home": "New Hampshire Fisher Cats",
    "away": "Altoona Curve",
    "homeId": 463,
    "awayId": 452,
    "venue": "Delta Dental Stadium",
    "city": "Manchester",
    "state": "New Hampshire",
    "lat": 42.98115,
    "lon": -71.46653,
    "status": "Scheduled",
    "timeTBD": false
  },
  {
    "id": 816653,
    "date": "2026-06-06T22:05:00Z",
    "sportId": 11,
    "league": "Triple-A",
    "home": "Gwinnett Stripers",
    "away": "Norfolk Tides",
    "homeId": 431,
    "awayId": 568,
    "venue": "Gwinnett Field",
    "city": "Lawrenceville",
    "state": "Georgia",
    "lat": 34.0409586,
    "lon": -83.9937909,
    "status": "Scheduled",
    "timeTBD": false
  },
  {
    "id": 822502,
    "date": "2026-06-06T22:05:00Z",
    "sportId": 13,
    "league": "High-A",
    "home": "Asheville Tourists",
    "away": "Greensboro Grasshoppers",
    "homeId": 573,
    "awayId": 477,
    "venue": "HomeTrust Park",
    "city": "Asheville",
    "state": "North Carolina",
    "lat": 35.58668,
    "lon": -82.5501,
    "status": "Scheduled",
    "timeTBD": false
  },
  {
    "id": 821832,
    "date": "2026-06-06T22:05:00Z",
    "sportId": 13,
    "league": "High-A",
    "home": "Wilmington Blue Rocks",
    "away": "Bowling Green Hot Rods",
    "homeId": 426,
    "awayId": 2498,
    "venue": "Frawley Stadium",
    "city": "Wilmington",
    "state": "Delaware",
    "lat": 39.731809,
    "lon": -75.564174,
    "status": "Scheduled",
    "timeTBD": false
  },
  {
    "id": 827473,
    "date": "2026-06-06T22:05:00Z",
    "sportId": 14,
    "league": "Single-A",
    "home": "Charleston RiverDogs",
    "away": "Myrtle Beach Pelicans",
    "homeId": 233,
    "awayId": 521,
    "venue": "Joseph P. Riley, Jr. Ballpark",
    "city": "Charleston",
    "state": "South Carolina",
    "lat": 32.790421,
    "lon": -79.961332,
    "status": "Scheduled",
    "timeTBD": false
  },
  {
    "id": 818884,
    "date": "2026-06-06T22:07:00Z",
    "sportId": 12,
    "league": "Double-A",
    "home": "Binghamton Rumble Ponies",
    "away": "Reading Fightin Phils",
    "homeId": 505,
    "awayId": 522,
    "venue": "Mirabito Stadium",
    "city": "Binghamton",
    "state": "New York",
    "lat": 42.1031199,
    "lon": -75.90379,
    "status": "Scheduled",
    "timeTBD": false
  },
  {
    "id": 820335,
    "date": "2026-06-06T22:10:00Z",
    "sportId": 14,
    "league": "Single-A",
    "home": "St. Lucie Mets",
    "away": "Clearwater Threshers",
    "homeId": 507,
    "awayId": 566,
    "venue": "Clover Park",
    "city": "Port St. Lucie",
    "state": "Florida",
    "lat": 27.3249268,
    "lon": -80.4068854,
    "status": "Scheduled",
    "timeTBD": false
  },
  {
    "id": 819678,
    "date": "2026-06-06T22:30:00Z",
    "sportId": 13,
    "league": "High-A",
    "home": "Quad Cities River Bandits",
    "away": "South Bend Cubs",
    "homeId": 565,
    "awayId": 550,
    "venue": "Modern Woodmen Park",
    "city": "Davenport",
    "state": "Iowa",
    "lat": 41.51868,
    "lon": -90.58187,
    "status": "Scheduled",
    "timeTBD": false
  },
  {
    "id": 821754,
    "date": "2026-06-06T22:30:00Z",
    "sportId": 13,
    "league": "High-A",
    "home": "Winston-Salem Dash",
    "away": "Hub City Spartanburgers",
    "homeId": 580,
    "awayId": 6324,
    "venue": "Truist Stadium",
    "city": "Winston-Salem",
    "state": "North Carolina",
    "lat": 36.09182,
    "lon": -80.25527,
    "status": "Scheduled",
    "timeTBD": false
  },
  {
    "id": 820664,
    "date": "2026-06-06T22:30:00Z",
    "sportId": 14,
    "league": "Single-A",
    "home": "Dunedin Blue Jays",
    "away": "Daytona Tortugas",
    "homeId": 424,
    "awayId": 450,
    "venue": "TD Ballpark",
    "city": "Dunedin",
    "state": "Florida",
    "lat": 27.9745812,
    "lon": -82.7913301,
    "status": "Scheduled",
    "timeTBD": false
  },
  {
    "id": 820267,
    "date": "2026-06-06T22:30:00Z",
    "sportId": 14,
    "league": "Single-A",
    "home": "Tampa Tarpons",
    "away": "Palm Beach Cardinals",
    "homeId": 587,
    "awayId": 279,
    "venue": "George M. Steinbrenner Field",
    "city": "Tampa",
    "state": "Florida",
    "lat": 27.97997,
    "lon": -82.50702,
    "status": "Scheduled",
    "timeTBD": false
  },
  {
    "id": 815665,
    "date": "2026-06-06T22:35:00Z",
    "sportId": 11,
    "league": "Triple-A",
    "home": "Syracuse Mets",
    "away": "Scranton/Wilkes-Barre RailRiders",
    "homeId": 552,
    "awayId": 531,
    "venue": "NBT Bank Stadium",
    "city": "Syracuse",
    "state": "New York",
    "lat": 43.079531,
    "lon": -76.165419,
    "status": "Scheduled",
    "timeTBD": false
  },
  {
    "id": 816421,
    "date": "2026-06-06T22:35:00Z",
    "sportId": 11,
    "league": "Triple-A",
    "home": "Jacksonville Jumbo Shrimp",
    "away": "Nashville Sounds",
    "homeId": 564,
    "awayId": 556,
    "venue": "Vystar Ballpark",
    "city": "Jacksonville",
    "state": "Florida",
    "lat": 30.32533,
    "lon": -81.64256,
    "status": "Scheduled",
    "timeTBD": false
  },
  {
    "id": 816339,
    "date": "2026-06-06T22:35:00Z",
    "sportId": 11,
    "league": "Triple-A",
    "home": "Lehigh Valley IronPigs",
    "away": "Rochester Red Wings",
    "homeId": 1410,
    "awayId": 534,
    "venue": "Coca-Cola Park",
    "city": "Allentown",
    "state": "Pennsylvania",
    "lat": 40.6253183,
    "lon": -75.4516154,
    "status": "Scheduled",
    "timeTBD": false
  },
  {
    "id": 818807,
    "date": "2026-06-06T22:35:00Z",
    "sportId": 12,
    "league": "Double-A",
    "home": "Chesapeake Baysox",
    "away": "Akron RubberDucks",
    "homeId": 418,
    "awayId": 402,
    "venue": "Prince George's Stadium",
    "city": "Bowie",
    "state": "Maryland",
    "lat": 38.946114,
    "lon": -76.709334,
    "status": "Scheduled",
    "timeTBD": false
  },
  {
    "id": 820009,
    "date": "2026-06-06T22:35:00Z",
    "sportId": 13,
    "league": "High-A",
    "home": "Fort Wayne TinCaps",
    "away": "Lake County Captains",
    "homeId": 584,
    "awayId": 437,
    "venue": "Parkview Field",
    "city": "Fort Wayne",
    "state": "Indiana",
    "lat": 41.07345,
    "lon": -85.14366,
    "status": "Scheduled",
    "timeTBD": false
  },
  {
    "id": 827199,
    "date": "2026-06-06T22:35:00Z",
    "sportId": 14,
    "league": "Single-A",
    "home": "Fredericksburg Nationals",
    "away": "Hill City Howlers",
    "homeId": 436,
    "awayId": 481,
    "venue": "Virginia Credit Union Stadium",
    "city": "Fredericksburg",
    "state": "Virginia",
    "lat": 38.3181302,
    "lon": -77.5124029,
    "status": "Scheduled",
    "timeTBD": false
  },
  {
    "id": 827536,
    "date": "2026-06-06T22:35:00Z",
    "sportId": 14,
    "league": "Single-A",
    "home": "Augusta GreenJackets",
    "away": "Delmarva Shorebirds",
    "homeId": 478,
    "awayId": 548,
    "venue": "SRP Park",
    "city": "North Augusta",
    "state": "South Carolina",
    "lat": 33.4844619,
    "lon": -81.9764372,
    "status": "Scheduled",
    "timeTBD": false
  },
  {
    "id": 816716,
    "date": "2026-06-06T22:45:00Z",
    "sportId": 11,
    "league": "Triple-A",
    "home": "Durham Bulls",
    "away": "Charlotte Knights",
    "homeId": 234,
    "awayId": 494,
    "venue": "Durham Bulls Athletic Park",
    "city": "Durham",
    "state": "North Carolina",
    "lat": 35.99158,
    "lon": -78.90401,
    "status": "Scheduled",
    "timeTBD": false
  },
  {
    "id": 821898,
    "date": "2026-06-06T22:45:00Z",
    "sportId": 13,
    "league": "High-A",
    "home": "Rome Emperors",
    "away": "Greenville Drive",
    "homeId": 432,
    "awayId": 428,
    "venue": "AdventHealth Stadium",
    "city": "Rome",
    "state": "Georgia",
    "lat": 34.285832,
    "lon": -85.167211,
    "status": "Scheduled",
    "timeTBD": false
  },
  {
    "id": 817910,
    "date": "2026-06-06T23:00:00Z",
    "sportId": 12,
    "league": "Double-A",
    "home": "Knoxville Smokies",
    "away": "Birmingham Barons",
    "homeId": 553,
    "awayId": 247,
    "venue": "Covenant Health Park",
    "city": "Knoxville",
    "state": "Tennessee",
    "lat": 35.97248459516771,
    "lon": -83.91495041686319,
    "status": "Scheduled",
    "timeTBD": false
  },
  {
    "id": 827134,
    "date": "2026-06-06T23:00:00Z",
    "sportId": 14,
    "league": "Single-A",
    "home": "Hickory Crawdads",
    "away": "Kannapolis Cannon Ballers",
    "homeId": 448,
    "awayId": 487,
    "venue": "L.P. Frans Stadium",
    "city": "Hickory",
    "state": "North Carolina",
    "lat": 35.747289,
    "lon": -81.3778848,
    "status": "Scheduled",
    "timeTBD": false
  },
  {
    "id": 815220,
    "date": "2026-06-06T23:05:00Z",
    "sportId": 11,
    "league": "Triple-A",
    "home": "Oklahoma City Comets",
    "away": "Round Rock Express",
    "homeId": 238,
    "awayId": 102,
    "venue": "Chickasaw Bricktown Ballpark",
    "city": "Oklahoma City",
    "state": "Oklahoma",
    "lat": 35.46511,
    "lon": -97.50762,
    "status": "Scheduled",
    "timeTBD": false
  },
  {
    "id": 816793,
    "date": "2026-06-06T23:05:00Z",
    "sportId": 11,
    "league": "Triple-A",
    "home": "Columbus Clippers",
    "away": "Omaha Storm Chasers",
    "homeId": 445,
    "awayId": 541,
    "venue": "Huntington Park",
    "city": "Columbus",
    "state": "Ohio",
    "lat": 39.96868,
    "lon": -83.01102,
    "status": "Scheduled",
    "timeTBD": false
  },
  {
    "id": 818334,
    "date": "2026-06-06T23:05:00Z",
    "sportId": 12,
    "league": "Double-A",
    "home": "Richmond Flying Squirrels",
    "away": "Erie SeaWolves",
    "homeId": 3410,
    "awayId": 106,
    "venue": "CarMax Park",
    "city": "Richmond",
    "state": "Virginia",
    "lat": null,
    "lon": null,
    "status": "Scheduled",
    "timeTBD": false
  },
  {
    "id": 817778,
    "date": "2026-06-06T23:05:00Z",
    "sportId": 12,
    "league": "Double-A",
    "home": "Pensacola Blue Wahoos",
    "away": "Chattanooga Lookouts",
    "homeId": 4124,
    "awayId": 498,
    "venue": "Blue Wahoos Stadium",
    "city": "Pensacola",
    "state": "Florida",
    "lat": 30.4048409,
    "lon": -87.2188349,
    "status": "Scheduled",
    "timeTBD": false
  },
  {
    "id": 818186,
    "date": "2026-06-06T23:05:00Z",
    "sportId": 12,
    "league": "Double-A",
    "home": "Biloxi Shuckers",
    "away": "Montgomery Biscuits",
    "homeId": 5015,
    "awayId": 421,
    "venue": "Keesler Federal Park",
    "city": "Biloxi",
    "state": "Mississippi",
    "lat": 30.395421,
    "lon": -88.893217,
    "status": "Scheduled",
    "timeTBD": false
  },
  {
    "id": 821962,
    "date": "2026-06-06T23:05:00Z",
    "sportId": 13,
    "league": "High-A",
    "home": "Jersey Shore BlueClaws",
    "away": "Brooklyn Cyclones",
    "homeId": 427,
    "awayId": 453,
    "venue": "ShoreTown Ballpark",
    "city": "Lakewood",
    "state": "New Jersey",
    "lat": 40.07495,
    "lon": -74.18846,
    "status": "Scheduled",
    "timeTBD": false
  },
  {
    "id": 819935,
    "date": "2026-06-06T23:05:00Z",
    "sportId": 13,
    "league": "High-A",
    "home": "Great Lakes Loons",
    "away": "Lansing Lugnuts",
    "homeId": 456,
    "awayId": 499,
    "venue": "Dow Diamond",
    "city": "Midland",
    "state": "Michigan",
    "lat": 43.6089355,
    "lon": -84.2397878,
    "status": "Scheduled",
    "timeTBD": false
  },
  {
    "id": 819542,
    "date": "2026-06-06T23:05:00Z",
    "sportId": 13,
    "league": "High-A",
    "home": "West Michigan Whitecaps",
    "away": "Dayton Dragons",
    "homeId": 582,
    "awayId": 459,
    "venue": "LMCU Ballpark",
    "city": "Comstock Park",
    "state": "Michigan",
    "lat": 43.040797,
    "lon": -85.65933,
    "status": "Scheduled",
    "timeTBD": false
  },
  {
    "id": 826800,
    "date": "2026-06-06T23:05:00Z",
    "sportId": 14,
    "league": "Single-A",
    "home": "Wilson Warbirds",
    "away": "Salem RidgeYaks",
    "homeId": 249,
    "awayId": 414,
    "venue": "Wilson Ballpark",
    "city": "Wilson",
    "state": "North Carolina",
    "lat": null,
    "lon": null,
    "status": "Scheduled",
    "timeTBD": false
  },
  {
    "id": 827260,
    "date": "2026-06-06T23:05:00Z",
    "sportId": 14,
    "league": "Single-A",
    "home": "Fayetteville Woodpeckers",
    "away": "Columbia Fireflies",
    "homeId": 3712,
    "awayId": 3705,
    "venue": "SEGRA Stadium",
    "city": "Fayetteville",
    "state": "North Carolina",
    "lat": 35.054357,
    "lon": -78.8851444,
    "status": "Scheduled",
    "timeTBD": false
  },
  {
    "id": 816497,
    "date": "2026-06-06T23:08:00Z",
    "sportId": 11,
    "league": "Triple-A",
    "home": "Iowa Cubs",
    "away": "Toledo Mud Hens",
    "homeId": 451,
    "awayId": 512,
    "venue": "Principal Park",
    "city": "Des Moines",
    "state": "Iowa",
    "lat": 41.57998,
    "lon": -93.61619,
    "status": "Scheduled",
    "timeTBD": false
  },
  {
    "id": 822891,
    "date": "2026-06-06T23:35:00Z",
    "sportId": 1,
    "league": "MLB",
    "home": "Texas Rangers",
    "away": "Cleveland Guardians",
    "homeId": 140,
    "awayId": 114,
    "venue": "Globe Life Field",
    "city": "Arlington",
    "state": "Texas",
    "lat": 32.747299,
    "lon": -97.081818,
    "status": "Scheduled",
    "timeTBD": false
  },
  {
    "id": 823539,
    "date": "2026-06-06T23:35:00Z",
    "sportId": 1,
    "league": "MLB",
    "home": "New York Yankees",
    "away": "Boston Red Sox",
    "homeId": 147,
    "awayId": 111,
    "venue": "Yankee Stadium",
    "city": "Bronx",
    "state": "New York",
    "lat": 40.82919482,
    "lon": -73.9264977,
    "status": "Scheduled",
    "timeTBD": false
  },
  {
    "id": 816196,
    "date": "2026-06-06T23:35:00Z",
    "sportId": 11,
    "league": "Triple-A",
    "home": "Memphis Redbirds",
    "away": "Louisville Bats",
    "homeId": 235,
    "awayId": 416,
    "venue": "AutoZone Park",
    "city": "Memphis",
    "state": "Tennessee",
    "lat": 35.14297,
    "lon": -90.04924,
    "status": "Scheduled",
    "timeTBD": false
  },
  {
    "id": 817293,
    "date": "2026-06-06T23:35:00Z",
    "sportId": 12,
    "league": "Double-A",
    "home": "Northwest Arkansas Naturals",
    "away": "Midland RockHounds",
    "homeId": 1350,
    "awayId": 237,
    "venue": "Arvest Ballpark",
    "city": "Springdale",
    "state": "Arkansas",
    "lat": 36.15968,
    "lon": -94.194624,
    "status": "Scheduled",
    "timeTBD": false
  },
  {
    "id": 817714,
    "date": "2026-06-06T23:35:00Z",
    "sportId": 12,
    "league": "Double-A",
    "home": "Rocket City Trash Pandas",
    "away": "Columbus Clingstones",
    "homeId": 559,
    "awayId": 6325,
    "venue": "Toyota Field",
    "city": "Madison",
    "state": "Alabama",
    "lat": 34.6837403,
    "lon": -86.7274237,
    "status": "Scheduled",
    "timeTBD": false
  },
  {
    "id": 820136,
    "date": "2026-06-06T23:35:00Z",
    "sportId": 13,
    "league": "High-A",
    "home": "Cedar Rapids Kernels",
    "away": "Wisconsin Timber Rattlers",
    "homeId": 492,
    "awayId": 572,
    "venue": "Veterans Memorial Stadium",
    "city": "Cedar Rapids",
    "state": "Iowa",
    "lat": 41.96785,
    "lon": -91.68662,
    "status": "Scheduled",
    "timeTBD": false
  },
  {
    "id": 815739,
    "date": "2026-06-06T23:37:00Z",
    "sportId": 11,
    "league": "Triple-A",
    "home": "St. Paul Saints",
    "away": "Indianapolis Indians",
    "homeId": 1960,
    "awayId": 484,
    "venue": "CHS Field",
    "city": "St. Paul",
    "state": "Minnesota",
    "lat": 44.95089651,
    "lon": -93.08457526,
    "status": "Scheduled",
    "timeTBD": false
  },
  {
    "id": 817430,
    "date": "2026-06-07T00:05:00Z",
    "sportId": 12,
    "league": "Double-A",
    "home": "Frisco RoughRiders",
    "away": "Springfield Cardinals",
    "homeId": 540,
    "awayId": 440,
    "venue": "Riders Field",
    "city": "Frisco",
    "state": "Texas",
    "lat": 33.0984,
    "lon": -96.8197,
    "status": "Scheduled",
    "timeTBD": false
  },
  {
    "id": 817492,
    "date": "2026-06-07T00:05:00Z",
    "sportId": 12,
    "league": "Double-A",
    "home": "Corpus Christi Hooks",
    "away": "Arkansas Travelers",
    "homeId": 482,
    "awayId": 574,
    "venue": "Whataburger Field",
    "city": "Corpus Christi",
    "state": "Texas",
    "lat": 27.80995,
    "lon": -97.39941,
    "status": "Scheduled",
    "timeTBD": false
  },
  {
    "id": 817641,
    "date": "2026-06-07T00:05:00Z",
    "sportId": 12,
    "league": "Double-A",
    "home": "Amarillo Sod Poodles",
    "away": "Tulsa Drillers",
    "homeId": 5368,
    "awayId": 260,
    "venue": "Hodgetown",
    "city": "Amarillo",
    "state": "Texas",
    "lat": 35.2050189,
    "lon": -101.8339567,
    "status": "Scheduled",
    "timeTBD": false
  },
  {
    "id": 819737,
    "date": "2026-06-07T00:05:00Z",
    "sportId": 13,
    "league": "High-A",
    "home": "Peoria Chiefs",
    "away": "Beloit Sky Carp",
    "homeId": 443,
    "awayId": 554,
    "venue": "Dozer Park",
    "city": "Peoria",
    "state": "Illinois",
    "lat": 40.68751,
    "lon": -89.59781,
    "status": "Scheduled",
    "timeTBD": false
  },
  {
    "id": 814920,
    "date": "2026-06-07T00:35:00Z",
    "sportId": 11,
    "league": "Triple-A",
    "home": "Salt Lake Bees",
    "away": "Albuquerque Isotopes",
    "homeId": 561,
    "awayId": 342,
    "venue": "The Ballpark at America First Square",
    "city": "South Jordan",
    "state": "Utah",
    "lat": 40.549066970052124,
    "lon": -112.02301999999999,
    "status": "Scheduled",
    "timeTBD": false
  },
  {
    "id": 815369,
    "date": "2026-06-07T00:35:00Z",
    "sportId": 11,
    "league": "Triple-A",
    "home": "El Paso Chihuahuas",
    "away": "Sugar Land Space Cowboys",
    "homeId": 4904,
    "awayId": 5434,
    "venue": "Southwest University Park",
    "city": "El Paso",
    "state": "Texas",
    "lat": 31.759277,
    "lon": -106.492526,
    "status": "Scheduled",
    "timeTBD": false
  },
  {
    "id": 821066,
    "date": "2026-06-07T01:00:00Z",
    "sportId": 14,
    "league": "Single-A",
    "home": "San Jose Giants",
    "away": "Inland Empire 66ers",
    "homeId": 476,
    "awayId": 401,
    "venue": "Excite Ballpark",
    "city": "San Jose",
    "state": "California",
    "lat": 37.32128,
    "lon": -121.862286,
    "status": "Scheduled",
    "timeTBD": false
  },
  {
    "id": 821193,
    "date": "2026-06-07T01:05:00Z",
    "sportId": 14,
    "league": "Single-A",
    "home": "Ontario Tower Buzzers",
    "away": "Stockton Ports",
    "homeId": 6482,
    "awayId": 524,
    "venue": "ONT Field",
    "city": "Ontario",
    "state": "California",
    "lat": 34.0184639834586,
    "lon": -117.60331808557788,
    "status": "Scheduled",
    "timeTBD": false
  },
  {
    "id": 824351,
    "date": "2026-06-07T01:10:00Z",
    "sportId": 1,
    "league": "MLB",
    "home": "Colorado Rockies",
    "away": "Milwaukee Brewers",
    "homeId": 115,
    "awayId": 158,
    "venue": "Coors Field",
    "city": "Denver",
    "state": "Colorado",
    "lat": 39.756042,
    "lon": -104.994136,
    "status": "Scheduled",
    "timeTBD": false
  },
  {
    "id": 819143,
    "date": "2026-06-07T01:30:00Z",
    "sportId": 13,
    "league": "High-A",
    "home": "Tri-City Dust Devils",
    "away": "Vancouver Canadians",
    "homeId": 460,
    "awayId": 435,
    "venue": "Gesa Stadium",
    "city": "Pasco",
    "state": "Washington",
    "lat": 46.27032,
    "lon": -119.17079,
    "status": "Scheduled",
    "timeTBD": false
  },
  {
    "id": 821122,
    "date": "2026-06-07T01:30:00Z",
    "sportId": 14,
    "league": "Single-A",
    "home": "Rancho Cucamonga Quakes",
    "away": "Visalia Rawhide",
    "homeId": 526,
    "awayId": 516,
    "venue": "Morongo Field",
    "city": "Rancho Cucamonga",
    "state": "California",
    "lat": 34.102721,
    "lon": -117.54792,
    "status": "Scheduled",
    "timeTBD": false
  },
  {
    "id": 819218,
    "date": "2026-06-07T01:35:00Z",
    "sportId": 13,
    "league": "High-A",
    "home": "Spokane Indians",
    "away": "Hillsboro Hops",
    "homeId": 486,
    "awayId": 419,
    "venue": "Avista Stadium",
    "city": "Spokane",
    "state": "Washington",
    "lat": 47.661351,
    "lon": -117.344426,
    "status": "Scheduled",
    "timeTBD": false
  },
  {
    "id": 814994,
    "date": "2026-06-07T01:37:00Z",
    "sportId": 11,
    "league": "Triple-A",
    "home": "Sacramento River Cats",
    "away": "Tacoma Rainiers",
    "homeId": 105,
    "awayId": 529,
    "venue": "Sutter Health Park",
    "city": "Sacramento",
    "state": "California",
    "lat": 38.57994,
    "lon": -121.51246,
    "status": "Scheduled",
    "timeTBD": false
  },
  {
    "id": 821394,
    "date": "2026-06-07T01:50:00Z",
    "sportId": 14,
    "league": "Single-A",
    "home": "Fresno Grizzlies",
    "away": "Lake Elsinore Storm",
    "homeId": 259,
    "awayId": 103,
    "venue": "Chukchansi Park",
    "city": "Fresno",
    "state": "California",
    "lat": 36.73256,
    "lon": -119.79157,
    "status": "Scheduled",
    "timeTBD": false
  },
  {
    "id": 815293,
    "date": "2026-06-07T02:05:00Z",
    "sportId": 11,
    "league": "Triple-A",
    "home": "Las Vegas Aviators",
    "away": "Reno Aces",
    "homeId": 400,
    "awayId": 2310,
    "venue": "Las Vegas Ballpark",
    "city": "Las Vegas",
    "state": "Nevada",
    "lat": 36.152607,
    "lon": -115.329888,
    "status": "Scheduled",
    "timeTBD": false
  },
  {
    "id": 819350,
    "date": "2026-06-07T02:05:00Z",
    "sportId": 13,
    "league": "High-A",
    "home": "Everett AquaSox",
    "away": "Eugene Emeralds",
    "homeId": 403,
    "awayId": 461,
    "venue": "Everett Memorial Stadium",
    "city": "Everett",
    "state": "Washington",
    "lat": 47.966664,
    "lon": -122.202786,
    "status": "Scheduled",
    "timeTBD": false
  },
  {
    "id": 823942,
    "date": "2026-06-07T02:10:00Z",
    "sportId": 1,
    "league": "MLB",
    "home": "Los Angeles Dodgers",
    "away": "Los Angeles Angels",
    "homeId": 119,
    "awayId": 108,
    "venue": "UNIQLO Field at Dodger Stadium",
    "city": "Los Angeles",
    "state": "California",
    "lat": 34.07368,
    "lon": -118.24053,
    "status": "Scheduled",
    "timeTBD": false
  },
  {
    "id": 823292,
    "date": "2026-06-07T02:10:00Z",
    "sportId": 1,
    "league": "MLB",
    "home": "San Diego Padres",
    "away": "New York Mets",
    "homeId": 135,
    "awayId": 121,
    "venue": "Petco Park",
    "city": "San Diego",
    "state": "California",
    "lat": 32.707861,
    "lon": -117.157278,
    "status": "Scheduled",
    "timeTBD": false
  },
  {
    "id": 820668,
    "date": "2026-06-07T16:00:00Z",
    "sportId": 14,
    "league": "Single-A",
    "home": "Dunedin Blue Jays",
    "away": "Daytona Tortugas",
    "homeId": 424,
    "awayId": 450,
    "venue": "TD Ballpark",
    "city": "Dunedin",
    "state": "Florida",
    "lat": 27.9745812,
    "lon": -82.7913301,
    "status": "Scheduled",
    "timeTBD": false
  },
  {
    "id": 820474,
    "date": "2026-06-07T16:00:00Z",
    "sportId": 14,
    "league": "Single-A",
    "home": "Lakeland Flying Tigers",
    "away": "Fort Myers Mighty Mussels",
    "homeId": 570,
    "awayId": 509,
    "venue": "Publix Field at Joker Marchant Stadium",
    "city": "Lakeland",
    "state": "Florida",
    "lat": 28.074822,
    "lon": -81.9508415,
    "status": "Scheduled",
    "timeTBD": false
  },
  {
    "id": 820270,
    "date": "2026-06-07T16:00:00Z",
    "sportId": 14,
    "league": "Single-A",
    "home": "Tampa Tarpons",
    "away": "Palm Beach Cardinals",
    "homeId": 587,
    "awayId": 279,
    "venue": "George M. Steinbrenner Field",
    "city": "Tampa",
    "state": "Florida",
    "lat": 27.97997,
    "lon": -82.50702,
    "status": "Scheduled",
    "timeTBD": false
  },
  {
    "id": 820333,
    "date": "2026-06-07T16:10:00Z",
    "sportId": 14,
    "league": "Single-A",
    "home": "St. Lucie Mets",
    "away": "Clearwater Threshers",
    "homeId": 507,
    "awayId": 566,
    "venue": "Clover Park",
    "city": "Port St. Lucie",
    "state": "Florida",
    "lat": 27.3249268,
    "lon": -80.4068854,
    "status": "Scheduled",
    "timeTBD": false
  },
  {
    "id": 820538,
    "date": "2026-06-07T16:30:00Z",
    "sportId": 14,
    "league": "Single-A",
    "home": "Jupiter Hammerheads",
    "away": "Bradenton Marauders",
    "homeId": 479,
    "awayId": 3390,
    "venue": "Roger Dean Chevrolet Stadium",
    "city": "Jupiter",
    "state": "Florida",
    "lat": 26.890957,
    "lon": -80.116365,
    "status": "Scheduled",
    "timeTBD": false
  },
  {
    "id": 818879,
    "date": "2026-06-07T17:00:00Z",
    "sportId": 12,
    "league": "Double-A",
    "home": "Binghamton Rumble Ponies",
    "away": "Reading Fightin Phils",
    "homeId": 505,
    "awayId": 522,
    "venue": "Mirabito Stadium",
    "city": "Binghamton",
    "state": "New York",
    "lat": 42.1031199,
    "lon": -75.90379,
    "status": "Scheduled",
    "timeTBD": false
  },
  {
    "id": 818467,
    "date": "2026-06-07T17:00:00Z",
    "sportId": 12,
    "league": "Double-A",
    "home": "Portland Sea Dogs",
    "away": "Hartford Yard Goats",
    "homeId": 546,
    "awayId": 538,
    "venue": "Delta Dental Park",
    "city": "Portland",
    "state": "Maine",
    "lat": 43.6562399,
    "lon": -70.27873,
    "status": "Scheduled",
    "timeTBD": false
  },
  {
    "id": 818678,
    "date": "2026-06-07T17:00:00Z",
    "sportId": 12,
    "league": "Double-A",
    "home": "Harrisburg Senators",
    "away": "Somerset Patriots",
    "homeId": 547,
    "awayId": 1956,
    "venue": "FNB Field",
    "city": "Harrisburg",
    "state": "Pennsylvania",
    "lat": 40.2568294,
    "lon": -76.8896522,
    "status": "Scheduled",
    "timeTBD": false
  },
  {
    "id": 821897,
    "date": "2026-06-07T17:00:00Z",
    "sportId": 13,
    "league": "High-A",
    "home": "Rome Emperors",
    "away": "Greenville Drive",
    "homeId": 432,
    "awayId": 428,
    "venue": "AdventHealth Stadium",
    "city": "Rome",
    "state": "Georgia",
    "lat": 34.285832,
    "lon": -85.167211,
    "status": "Scheduled",
    "timeTBD": false
  },
  {
    "id": 815514,
    "date": "2026-06-07T17:05:00Z",
    "sportId": 11,
    "league": "Triple-A",
    "home": "Worcester Red Sox",
    "away": "Buffalo Bisons",
    "homeId": 533,
    "awayId": 422,
    "venue": "Polar Park",
    "city": "Worcester",
    "state": "Massachusetts",
    "lat": 42.25606,
    "lon": -71.80028,
    "status": "Scheduled",
    "timeTBD": false
  },
  {
    "id": 816794,
    "date": "2026-06-07T17:05:00Z",
    "sportId": 11,
    "league": "Triple-A",
    "home": "Columbus Clippers",
    "away": "Omaha Storm Chasers",
    "homeId": 445,
    "awayId": 541,
    "venue": "Huntington Park",
    "city": "Columbus",
    "state": "Ohio",
    "lat": 39.96868,
    "lon": -83.01102,
    "status": "Scheduled",
    "timeTBD": false
  },
  {
    "id": 815666,
    "date": "2026-06-07T17:05:00Z",
    "sportId": 11,
    "league": "Triple-A",
    "home": "Syracuse Mets",
    "away": "Scranton/Wilkes-Barre RailRiders",
    "homeId": 552,
    "awayId": 531,
    "venue": "NBT Bank Stadium",
    "city": "Syracuse",
    "state": "New York",
    "lat": 43.079531,
    "lon": -76.165419,
    "status": "Scheduled",
    "timeTBD": false
  },
  {
    "id": 816640,
    "date": "2026-06-07T17:05:00Z",
    "sportId": 11,
    "league": "Triple-A",
    "home": "Gwinnett Stripers",
    "away": "Norfolk Tides",
    "homeId": 431,
    "awayId": 568,
    "venue": "Gwinnett Field",
    "city": "Lawrenceville",
    "state": "Georgia",
    "lat": 34.0409586,
    "lon": -83.9937909,
    "status": "Scheduled",
    "timeTBD": false
  },
  {
    "id": 818811,
    "date": "2026-06-07T17:05:00Z",
    "sportId": 12,
    "league": "Double-A",
    "home": "Chesapeake Baysox",
    "away": "Akron RubberDucks",
    "homeId": 418,
    "awayId": 402,
    "venue": "Prince George's Stadium",
    "city": "Bowie",
    "state": "Maryland",
    "lat": 38.946114,
    "lon": -76.709334,
    "status": "Scheduled",
    "timeTBD": false
  },
  {
    "id": 818530,
    "date": "2026-06-07T17:05:00Z",
    "sportId": 12,
    "league": "Double-A",
    "home": "New Hampshire Fisher Cats",
    "away": "Altoona Curve",
    "homeId": 463,
    "awayId": 452,
    "venue": "Delta Dental Stadium",
    "city": "Manchester",
    "state": "New Hampshire",
    "lat": 42.98115,
    "lon": -71.46653,
    "status": "Scheduled",
    "timeTBD": false
  },
  {
    "id": 821959,
    "date": "2026-06-07T17:05:00Z",
    "sportId": 13,
    "league": "High-A",
    "home": "Jersey Shore BlueClaws",
    "away": "Brooklyn Cyclones",
    "homeId": 427,
    "awayId": 453,
    "venue": "ShoreTown Ballpark",
    "city": "Lakewood",
    "state": "New Jersey",
    "lat": 40.07495,
    "lon": -74.18846,
    "status": "Scheduled",
    "timeTBD": false
  },
  {
    "id": 819933,
    "date": "2026-06-07T17:05:00Z",
    "sportId": 13,
    "league": "High-A",
    "home": "Great Lakes Loons",
    "away": "Lansing Lugnuts",
    "homeId": 456,
    "awayId": 499,
    "venue": "Dow Diamond",
    "city": "Midland",
    "state": "Michigan",
    "lat": 43.6089355,
    "lon": -84.2397878,
    "status": "Scheduled",
    "timeTBD": false
  },
  {
    "id": 822495,
    "date": "2026-06-07T17:05:00Z",
    "sportId": 13,
    "league": "High-A",
    "home": "Asheville Tourists",
    "away": "Greensboro Grasshoppers",
    "homeId": 573,
    "awayId": 477,
    "venue": "HomeTrust Park",
    "city": "Asheville",
    "state": "North Carolina",
    "lat": 35.58668,
    "lon": -82.5501,
    "status": "Scheduled",
    "timeTBD": false
  },
  {
    "id": 820005,
    "date": "2026-06-07T17:05:00Z",
    "sportId": 13,
    "league": "High-A",
    "home": "Fort Wayne TinCaps",
    "away": "Lake County Captains",
    "homeId": 584,
    "awayId": 437,
    "venue": "Parkview Field",
    "city": "Fort Wayne",
    "state": "Indiana",
    "lat": 41.07345,
    "lon": -85.14366,
    "status": "Scheduled",
    "timeTBD": false
  },
  {
    "id": 821834,
    "date": "2026-06-07T17:05:00Z",
    "sportId": 13,
    "league": "High-A",
    "home": "Wilmington Blue Rocks",
    "away": "Bowling Green Hot Rods",
    "homeId": 426,
    "awayId": 2498,
    "venue": "Frawley Stadium",
    "city": "Wilmington",
    "state": "Delaware",
    "lat": 39.731809,
    "lon": -75.564174,
    "status": "Scheduled",
    "timeTBD": false
  },
  {
    "id": 826799,
    "date": "2026-06-07T17:05:00Z",
    "sportId": 14,
    "league": "Single-A",
    "home": "Wilson Warbirds",
    "away": "Salem RidgeYaks",
    "homeId": 249,
    "awayId": 414,
    "venue": "Wilson Ballpark",
    "city": "Wilson",
    "state": "North Carolina",
    "lat": null,
    "lon": null,
    "status": "Scheduled",
    "timeTBD": false
  },
  {
    "id": 816344,
    "date": "2026-06-07T17:15:00Z",
    "sportId": 11,
    "league": "Triple-A",
    "home": "Lehigh Valley IronPigs",
    "away": "Rochester Red Wings",
    "homeId": 1410,
    "awayId": 534,
    "venue": "Coca-Cola Park",
    "city": "Allentown",
    "state": "Pennsylvania",
    "lat": 40.6253183,
    "lon": -75.4516154,
    "status": "Scheduled",
    "timeTBD": false
  },
  {
    "id": 824916,
    "date": "2026-06-07T17:35:00Z",
    "sportId": 1,
    "league": "MLB",
    "home": "Atlanta Braves",
    "away": "Pittsburgh Pirates",
    "homeId": 144,
    "awayId": 134,
    "venue": "Truist Park",
    "city": "Atlanta",
    "state": "Georgia",
    "lat": 33.890672,
    "lon": -84.467641,
    "status": "Scheduled",
    "timeTBD": false
  },
  {
    "id": 823453,
    "date": "2026-06-07T17:35:00Z",
    "sportId": 1,
    "league": "MLB",
    "home": "Philadelphia Phillies",
    "away": "Chicago White Sox",
    "homeId": 143,
    "awayId": 145,
    "venue": "Citizens Bank Park",
    "city": "Philadelphia",
    "state": "Pennsylvania",
    "lat": 39.90539086,
    "lon": -75.16716957,
    "status": "Scheduled",
    "timeTBD": false
  },
  {
    "id": 823537,
    "date": "2026-06-07T17:35:00Z",
    "sportId": 1,
    "league": "MLB",
    "home": "New York Yankees",
    "away": "Boston Red Sox",
    "homeId": 147,
    "awayId": 111,
    "venue": "Yankee Stadium",
    "city": "Bronx",
    "state": "New York",
    "lat": 40.82919482,
    "lon": -73.9264977,
    "status": "Scheduled",
    "timeTBD": false
  },
  {
    "id": 827198,
    "date": "2026-06-07T17:35:00Z",
    "sportId": 14,
    "league": "Single-A",
    "home": "Fredericksburg Nationals",
    "away": "Hill City Howlers",
    "homeId": 436,
    "awayId": 481,
    "venue": "Virginia Credit Union Stadium",
    "city": "Fredericksburg",
    "state": "Virginia",
    "lat": 38.3181302,
    "lon": -77.5124029,
    "status": "Scheduled",
    "timeTBD": false
  },
  {
    "id": 822807,
    "date": "2026-06-07T17:37:00Z",
    "sportId": 1,
    "league": "MLB",
    "home": "Toronto Blue Jays",
    "away": "Baltimore Orioles",
    "homeId": 141,
    "awayId": 110,
    "venue": "Rogers Centre",
    "city": "Toronto",
    "state": "Ontario",
    "lat": 43.64155,
    "lon": -79.38915,
    "status": "Scheduled",
    "timeTBD": false
  },
  {
    "id": 824268,
    "date": "2026-06-07T17:40:00Z",
    "sportId": 1,
    "league": "MLB",
    "home": "Detroit Tigers",
    "away": "Seattle Mariners",
    "homeId": 116,
    "awayId": 136,
    "venue": "Comerica Park",
    "city": "Detroit",
    "state": "Michigan",
    "lat": 42.3391151,
    "lon": -83.048695,
    "status": "Scheduled",
    "timeTBD": false
  },
  {
    "id": 823857,
    "date": "2026-06-07T17:40:00Z",
    "sportId": 1,
    "league": "MLB",
    "home": "Miami Marlins",
    "away": "Tampa Bay Rays",
    "homeId": 146,
    "awayId": 139,
    "venue": "loanDepot park",
    "city": "Miami",
    "state": "Florida",
    "lat": 25.77796236,
    "lon": -80.21951795,
    "status": "Scheduled",
    "timeTBD": false
  },
  {
    "id": 817906,
    "date": "2026-06-07T18:00:00Z",
    "sportId": 12,
    "league": "Double-A",
    "home": "Knoxville Smokies",
    "away": "Birmingham Barons",
    "homeId": 553,
    "awayId": 247,
    "venue": "Covenant Health Park",
    "city": "Knoxville",
    "state": "Tennessee",
    "lat": 35.97248459516771,
    "lon": -83.91495041686319,
    "status": "Scheduled",
    "timeTBD": false
  },
  {
    "id": 819675,
    "date": "2026-06-07T18:00:00Z",
    "sportId": 13,
    "league": "High-A",
    "home": "Quad Cities River Bandits",
    "away": "South Bend Cubs",
    "homeId": 565,
    "awayId": 550,
    "venue": "Modern Woodmen Park",
    "city": "Davenport",
    "state": "Iowa",
    "lat": 41.51868,
    "lon": -90.58187,
    "status": "Scheduled",
    "timeTBD": false
  },
  {
    "id": 819544,
    "date": "2026-06-07T18:00:00Z",
    "sportId": 13,
    "league": "High-A",
    "home": "West Michigan Whitecaps",
    "away": "Dayton Dragons",
    "homeId": 582,
    "awayId": 459,
    "venue": "LMCU Ballpark",
    "city": "Comstock Park",
    "state": "Michigan",
    "lat": 43.040797,
    "lon": -85.65933,
    "status": "Scheduled",
    "timeTBD": false
  },
  {
    "id": 821756,
    "date": "2026-06-07T18:00:00Z",
    "sportId": 13,
    "league": "High-A",
    "home": "Winston-Salem Dash",
    "away": "Hub City Spartanburgers",
    "homeId": 580,
    "awayId": 6324,
    "venue": "Truist Stadium",
    "city": "Winston-Salem",
    "state": "North Carolina",
    "lat": 36.09182,
    "lon": -80.25527,
    "status": "Scheduled",
    "timeTBD": false
  },
  {
    "id": 827131,
    "date": "2026-06-07T18:00:00Z",
    "sportId": 14,
    "league": "Single-A",
    "home": "Hickory Crawdads",
    "away": "Kannapolis Cannon Ballers",
    "homeId": 448,
    "awayId": 487,
    "venue": "L.P. Frans Stadium",
    "city": "Hickory",
    "state": "North Carolina",
    "lat": 35.747289,
    "lon": -81.3778848,
    "status": "Scheduled",
    "timeTBD": false
  },
  {
    "id": 816192,
    "date": "2026-06-07T18:05:00Z",
    "sportId": 11,
    "league": "Triple-A",
    "home": "Memphis Redbirds",
    "away": "Louisville Bats",
    "homeId": 235,
    "awayId": 416,
    "venue": "AutoZone Park",
    "city": "Memphis",
    "state": "Tennessee",
    "lat": 35.14297,
    "lon": -90.04924,
    "status": "Scheduled",
    "timeTBD": false
  },